,Unnamed: 0,Unnamed: 0.1,venue_id,name,lat,lng,address,distance,postalCode,cc,city,state,country,category,tipCount,likes,rating,price_tier,payments,phone,twitter,facebook,menu,formattedAddress,category_name
0,0,0,5487515a498e90fa40846448,Enskedeparkens bageri,59.28897213741021,18.063301053734108,Enskede gårdsväg 19,1263,120 47,SE,Stockholm,Storstockholm,Sverige,Bakery,13.0,58.0,9.1,1.0,Credit Cards: Yes,46702398040.0,,391548957662426.0,,"Enskede gårdsväg 19, 120 47 Årsta, Sverige","Bakery, Café"
1,1,1,4adcdaedf964a5206a5a21e3,Reggev Hummus,59.308876,18.081884,Ringvägen 145,1703,116 61,SE,Stockholm,Storstockholm,Sverige,Middle Eastern Restaurant,61.0,205.0,9.3,1.0,Credit Cards: Yes (incl. Visa & MasterCard),4686405801.0,,,,"Ringvägen 145 (btw Bjurholmsgatan & Södermannagatan), 116 61 Stockholm, Sverige",Middle Eastern Restaurant
2,2,2,51c9f88c498ebdb43d197011,Bonne Femme,59.29429103767666,18.109585550164965,Malmövägen 18,1479,121 49,SE,Johanneshov,Storstockholm,Sverige,Bakery,3.0,32.0,8.9,1.0,,,,,,"Malmövägen 18, 121 49 Johanneshov, Sverige","Bakery, Café, Fruit & Vegetable Store"
3,3,3,4c6822049cedd13a2bbd79a1,Gamla Enskede Matbod,59.28503292744222,18.08757305145264,Stockholmsvägen 117,980,122 62,SE,Stockholm,Storstockholm,Sverige,Scandinavian Restaurant,6.0,22.0,8.6,2.0,Credit Cards: Yes,4686483810.0,matboden,,,"Stockholmsvägen 117 (Stora Gungans väg), 122 62 Årsta, Sverige",Scandinavian Restaurant
4,4,4,52ee35b8498e6f60f06c5ec4,Två Små Svin,59.296702258827324,18.051828643948408,Årstavägen 49,1838,120 54,SE,Stockholm,Storstockholm,Sverige,Scandinavian Restaurant,12.0,44.0,8.9,2.0,Credit Cards: Yes,4687227520.0,,1407646436141248.0,https://www.xn--tvsmsvin-b0ac.se/Smoerrebroed,"Årstavägen 49, 120 54 Årsta, Sverige",Scandinavian Restaurant
5,5,5,5662b4f4498e5501f8d46bb5,Teatern,59.30841787852913,18.074962580724574,Götgatan 132,1720,118 62,SE,Stockholm,Storstockholm,Sverige,Food Court,35.0,204.0,8.8,,Credit Cards: Yes,4686963497.0,,,,"Götgatan 132, 118 62 Stockholm, Sverige",Food Court
6,6,6,55772baf498e3558cc8637ad,Bleck,59.30933757317354,18.08631405775564,Katarina Bangata 68,1758,116 42,SE,Stockholm,Storstockholm,Sverige,Modern European Restaurant,12.0,101.0,8.8,,Credit Cards: Yes,46705556456.0,,,http://restaurangbleck.se/pdf/bleck_meny_ENG.pdf,"Katarina Bangata 68, 116 42 Stockholm, Sverige","Modern European Restaurant, Scandinavian Restaurant"
7,7,7,4b994599f964a520326f35e3,La Vecchia Signora,59.314317294563246,18.084778413277963,Åsögatan 163,2307,116 32,SE,Stockholm,Storstockholm,Sverige,Italian Restaurant,11.0,66.0,9.3,2.0,Credit Cards: Yes,4686444585.0,,254774127910336.0,http://www.lavecchiasignora.se/pdf/matsedel.pdf,"Åsögatan 163, 116 32 Stockholm, Sverige",Italian Restaurant
8,8,8,4be300f7660ec928f5dbca3b,Restaurang Göteborg,59.3028844,18.1078207,Midskeppsgatan 31,1721,120 66,SE,Stockholm,Storstockholm,Sverige,Scandinavian Restaurant,25.0,73.0,8.7,2.0,Credit Cards: Yes,4631139933.0,,127554180640303.0,,"Midskeppsgatan 31, 120 66 Stockholm, Sverige","Scandinavian Restaurant, Seafood Restaurant"
9,9,9,4b59dbc9f964a5206d9c28e3,Enskede Värdshus,59.28843926740941,18.0611406603186,Midskeppsgatan 31,1400,,SE,Stockholm,Storstockholm,Sverige,Restaurant,4.0,33.0,8.5,2.0,Credit Cards: Yes,,,,,Sverige,Restaurant
10,10,10,55311cbb498ebe46791f8adc,Tbilisis hörna,59.29816019420304,18.08807665969369,Olaus Magnus väg 14,567,121 37,SE,Johanneshov,Storstockholm,Sverige,Caucasian Restaurant,8.0,52.0,8.2,,Credit Cards: Yes (incl. Visa & MasterCard),468398551.0,,1478651882403566.0,,"Olaus Magnus väg 14, 121 37 Johanneshov, Sverige","Caucasian Restaurant, Eastern European Restaurant"
11,11,11,553b9698498e298c559f6ef4,Indio Kitchen,59.31475419502692,18.083197690512648,Kocksgatan 52,2354,116 29,SE,Stockholm,Storstockholm,Sverige,Peruvian Restaurant,45.0,175.0,9.2,2.0,Credit Cards: Yes,46842062020.0,,1566638610261655.0,http://indio.se/kitchen/,"Kocksgatan 52, 116 29 Stockholm, Sverige","Peruvian Restaurant, Sushi Restaurant"
12,12,12,5308ac99498ee1dcd566a65c,Shanti Gossip,59.312659,18.08151,Skånegatan 71,2124,,SE,Stockholm,Storstockholm,Sverige,Indian Restaurant,37.0,161.0,8.9,2.0,Credit Cards: Yes,4686406901.0,,,,"Skånegatan 71, Stockholm, Sverige",Indian Restaurant
13,13,13,559bc4ee498eaee483d7ee06,Älskade Traditioner,59.310997,18.081898,Södermannagatan 42,1939,116 40,SE,Stockholm,Storstockholm,Sverige,Café,34.0,121.0,8.8,1.0,Credit Cards: Yes,4686437878.0,,483978301755131.0,,"Södermannagatan 42, 116 40 Stockholm, Sverige",Café
14,14,14,5915da02e2ead117353f9cb5,Falloumi,59.308133,18.077745,Ringvägen 127,1651,116 61,SE,Stockholm,Storstockholm,Sverige,Falafel Restaurant,12.0,45.0,8.6,1.0,Credit Cards: Yes,4684629629.0,,,http://falloumi.se/MENY.jpg,"Ringvägen 127, 116 61 Stockholm, Sverige",Falafel Restaurant
15,15,15,4af451d9f964a52047f121e3,Urban Deli,59.31241,18.082578,Nytorget 4,2094,116 40,SE,Stockholm,Storstockholm,Sverige,Deli / Bodega,186.0,838.0,8.9,2.0,Credit Cards: Yes (incl. American Express),46859909180.0,urbandelisthlm,108695662532778.0,,"Nytorget 4 (Skånegatan), 116 40 Stockholm, Sverige","Deli / Bodega, Restaurant"
16,16,16,5117844ee4b0d424717545de,Pom & Flora,59.313866755410345,18.086725505140397,Bondegatan 64,2263,116 33,SE,Stockholm,Storstockholm,Sverige,Café,52.0,201.0,9.0,2.0,Credit Cards: Yes (incl. MasterCard),46841010049.0,,136143356544507.0,,"Bondegatan 64 (Borgmästargatan), 116 33 Stockholm, Sverige","Café, Breakfast Spot, Coffee Shop"
17,17,17,4adcdaecf964a520175a21e3,Soldaten Švejk,59.31441959002985,18.07637695608228,Östgötagatan 35,2353,116 25,SE,Stockholm,Storstockholm,Sverige,Czech Restaurant,53.0,186.0,9.0,,Credit Cards: Yes (incl. American Express),4686413366.0,,,,"Östgötagatan 35 (Folkungagatan), 116 25 Stockholm, Sverige","Czech Restaurant, Pub"
18,18,18,4c5ac0e4d3aee21e81656b55,Kajsas i Parken,59.31126107903301,18.09104354995247,Stora Mejtens gränd,2011,,SE,Stockholm,Storstockholm,Sverige,Café,6.0,23.0,8.7,1.0,Credit Cards: Yes (incl. Visa & MasterCard),46735109460.0,cafekajsa,,,"Stora Mejtens gränd, Stockholm, Sverige",Café
19,19,19,4b5b30d2f964a520f6e928e3,Tezukuri Sushi,59.30548,18.091605,Hammarby Kaj 38,1398,120 63,SE,Stockholm,Storstockholm,Sverige,Sushi Restaurant,38.0,106.0,8.4,2.0,Credit Cards: Yes (incl. Visa & MasterCard),46850099191.0,,677124669013739.0,,"Hammarby Kaj 38, 120 63 Stockholm, Sverige","Sushi Restaurant, Japanese Restaurant, Asian Restaurant"
20,20,20,53942b6f498e10da32d8de7c,Greasy Spoon,59.31592824383912,18.0818341417978,Tjärhovsgatan 19,2487,,SE,Stockholm,Storstockholm,Sverige,Breakfast Spot,160.0,455.0,9.0,2.0,Credit Cards: Yes (incl. Visa & MasterCard),46722642097.0,greasyspoonsofo,1468053050091103.0,http://www.greasyspoon.se/menu.pdf,"Tjärhovsgatan 19, Stockholm, Sverige",Breakfast Spot
21,21,21,57e2a241498e9cc83f15621f,Café Nizza,59.31459461408998,18.086637339323946,Åsögatan 171,2343,116 32,SE,Stockholm,Storstockholm,Sverige,French Restaurant,9.0,42.0,8.8,3.0,Credit Cards: Yes,4686409950.0,,,,"Åsögatan 171 (Borgmästargatan), 116 32 Stockholm, Sverige",French Restaurant
22,22,22,5547bdd4498e23bf399b7a8c,Bistro Bananas,59.31186224640603,18.075537676849503,Skånegatan 47,2083,,SE,Stockholm,Storstockholm,Sverige,Bistro,21.0,129.0,8.6,,Credit Cards: Yes,,,1585472625003640.0,,"Skånegatan 47, Stockholm, Sverige","Bistro, Bar, Pizza Place"
23,23,23,53fb0345498e7dfcd314052e,Woodstockholm,59.317753,18.075071,Mosebacke Torg 9,2732,116 20,SE,Stockholm,Storstockholm,Sverige,Scandinavian Restaurant,20.0,86.0,9.1,2.0,Credit Cards: Yes,468369399.0,woodstockholm,169834456385326.0,,"Mosebacke Torg 9 (Fiskaregatan), 116 20 Stockholm, Sverige",Scandinavian Restaurant
24,24,24,58370a391174201f06cf4a35,Robin Delselius Bageri,59.31518523614714,18.083943252060546,Renstiernas gata 17,2402,116 31,SE,Stockholm,Storstockholm,Sverige,Bakery,8.0,36.0,8.8,1.0,,46840801615.0,,,,"Renstiernas gata 17, 116 31 Stockholm, Sverige",Bakery
25,25,25,50701f03e4b092df41e0f695,Bageri Petrus,59.3170773658823,18.063480318859114,Swedenborgsgatan 4B,2852,,SE,Stockholm,Storstockholm,Sverige,Bakery,44.0,157.0,9.1,1.0,Credit Cards: Yes,46864152111.0,,,,"Swedenborgsgatan 4B, Stockholm, Sverige","Bakery, Café, Coffee Shop"
26,26,26,560492ad498e043e72b93928,Racamaca,59.31681700000001,18.064059,Wollmar Yxkullsgatan 5,2812,,SE,Stockholm,Storstockholm,Sverige,Tapas Restaurant,18.0,37.0,9.1,3.0,Credit Cards: Yes,,,858395510854586.0,http://www.racamaca.se/ny-sida-matmeny/,"Wollmar Yxkullsgatan 5, Stockholm, Sverige","Tapas Restaurant, Bar"
27,27,27,551d2038498ea94001550d30,Amida Kolgrill,59.31485730686568,18.078227339717678,Folkungagatan 76,2385,116 22,SE,Stockholm,Storstockholm,Sverige,Kebab Restaurant,35.0,147.0,8.7,2.0,Credit Cards: Yes (incl. Visa & MasterCard),4684420360.0,amidakolgrill,128091757255126.0,http://www.amida.se/#menu-item-206,"Folkungagatan 76, 116 22 Stockholm, Sverige",Kebab Restaurant
28,28,28,4adcdaf0f964a5206c5b21e3,Chutney,59.31191730674152,18.076073829289815,Katarina Bangata 19,2083,116 39,SE,Stockholm,Storstockholm,Sverige,Vegetarian / Vegan Restaurant,56.0,201.0,8.5,2.0,Credit Cards: Yes,4686403010.0,,,,"Katarina Bangata 19, 116 39 Stockholm, Sverige",Vegetarian / Vegan Restaurant
29,29,29,4adcdaf1f964a5208a5b21e3,Crêperie Fyra Knop,59.31728063980053,18.072531688357266,Svartensgatan 4,2710,116 20,SE,Stockholm,Storstockholm,Sverige,Creperie,26.0,120.0,8.9,2.0,Credit Cards: Yes,4686407727.0,,,,"Svartensgatan 4 (Götgatan), 116 20 Stockholm, Sverige","Creperie, French Restaurant"
30,30,30,4e109b211f6e671dd9e00e72,Fotografiskas café,59.31783318622368,18.085083279183646,Stadsgårdshamnen 22,2698,116 45,SE,Stockholm,Storstockholm,Sverige,Café,72.0,305.0,8.9,1.0,Credit Cards: Yes,46850900560.0,fotografiska,,,"Stadsgårdshamnen 22, 116 45 Stockholm, Sverige",Café
31,31,31,5be5a6c0d807ee002c3f66be,Sébastien på söder,59.314652,18.070768,Stadsgårdshamnen 22,2454,118 26,SE,Stockholm,Storstockholm,Sverige,Bakery,5.0,10.0,8.7,1.0,,,,,,"118 26 Stockholm, Sverige",Bakery
32,32,32,4adcdaeaf964a520a75921e3,Hermans,59.317477,18.083889000000006,Fjällgatan 23,2658,116 28,SE,Stockholm,Storstockholm,Sverige,Vegetarian / Vegan Restaurant,197.0,470.0,8.8,2.0,Credit Cards: Yes,4686439480.0,,,,"Fjällgatan 23, 116 28 Stockholm, Sverige","Vegetarian / Vegan Restaurant, Café"
33,33,33,5374dec3498e377ff22040f3,Kalf & Hansen,59.318648,18.061896,Mariatorget 2,3048,118 49,SE,Stockholm,Storstockholm,Sverige,Scandinavian Restaurant,87.0,324.0,9.0,2.0,Credit Cards: Yes,46855153151.0,,1457559481135997.0,http://kalfochhansen.se/meny/,"Mariatorget 2, 118 49 Stockholm, Sverige",Scandinavian Restaurant
34,34,34,555b689d498e8bc24d8b6c62,Lily’s Burger,59.31215735445568,18.081415728427718,Södermannagatan 27,2069,116 40,SE,Stockholm,Storstockholm,Sverige,Burger Joint,38.0,149.0,8.4,3.0,Credit Cards: Yes,4686614045.0,,,,"Södermannagatan 27, 116 40 Stockholm, Sverige",Burger Joint
35,35,35,52455fa4498eee990f1af1ba,Falafelbaren,59.318515421977736,18.05940281047351,Hornsgatan 39,3095,,SE,Stockholm,Storstockholm,Sverige,Falafel Restaurant,60.0,224.0,9.0,2.0,Credit Cards: Yes (incl. Visa),46729072637.0,,,,"Hornsgatan 39, Stockholm, Sverige","Falafel Restaurant, Vegetarian / Vegan Restaurant"
36,36,36,4af290f1f964a520efe721e3,Drop Coffee,59.31691037096143,18.06300390731442,Wollmar Yxkullsgatan 10,2846,118 50,SE,Stockholm,Storstockholm,Sverige,Café,207.0,730.0,8.8,2.0,Credit Cards: Yes (incl. Visa & MasterCard),46841023363.0,dropcoffee,114329498589704.0,,"Wollmar Yxkullsgatan 10 (Swedenborgsgatan), 118 50 Stockholm, Sverige","Café, Coffee Shop"
37,37,37,4aff1175f964a520c43322e3,Shanti Softcorner,59.31358237655589,18.067843407482844,Södermalmsallén 34,2397,118 28,SE,Stockholm,Storstockholm,Sverige,Indian Restaurant,26.0,106.0,8.5,2.0,Credit Cards: Yes,4686439700.0,,,,"Södermalmsallén 34, 118 28 Stockholm, Sverige",Indian Restaurant
38,38,38,4adcdaf0f964a5204b5b21e3,Shanti,59.31061501805452,18.083717942668493,Katarina Bangata 58,1894,116 39,SE,Stockholm,Storstockholm,Sverige,Indian Restaurant,40.0,124.0,8.3,2.0,Credit Cards: Yes,4686426722.0,,,,"Katarina Bangata 58, 116 39 Stockholm, Sverige",Indian Restaurant
39,39,39,57542828498e2f5384535897,A BOWL,59.319749494193246,18.06273414699984,Blecktornsgränd 8,3143,118 24,SE,Stockholm,Storstockholm,Sverige,Poke Place,8.0,44.0,9.0,,Credit Cards: Yes,46704520638.0,,,http://www.abowlpokepoke.com/meny/,"Blecktornsgränd 8, 118 24 Stockholm, Sverige",Poke Place
40,40,40,551e3cb8498e9ac948bf1ff5,Punk Royale,59.31559250347097,18.087656682596528,Folkungagatan 128,2459,116 30,SE,Stockholm,Storstockholm,Sverige,Scandinavian Restaurant,15.0,51.0,8.5,2.0,Credit Cards: Yes (incl. American Express & MasterCard),46812146414.0,,,,"Folkungagatan 128, 116 30 Stockholm, Sverige",Scandinavian Restaurant
41,41,41,4cb5e1198db0a143e4bf6516,Babajan,59.308492,18.089663,Katarina Bangata 75,1693,116 42,SE,Stockholm,Storstockholm,Sverige,Restaurant,36.0,98.0,8.2,2.0,Credit Cards: Yes,4686403031.0,,,,"Katarina Bangata 75 (Ljusterögatan), 116 42 Stockholm, Sverige","Restaurant, Beer Bar"
42,42,42,4b44a384f964a5205cf825e3,Gojo Fasika,59.310182,18.086059,Ringvägen 161,1851,116 31,SE,Stockholm,Storstockholm,Sverige,Ethiopian Restaurant,20.0,69.0,8.3,2.0,Credit Cards: Yes,4686410496.0,,,,"Ringvägen 161 (Renstiernas Gata), 116 31 Stockholm, Sverige",Ethiopian Restaurant
43,43,43,5abd13ea872f7d63029d9cef,Pat’s Place,59.315553,18.089646,Folkungagatan 140,2467,116 30,SE,Stockholm,Storstockholm,Sverige,Thai Restaurant,9.0,18.0,8.5,2.0,,4686442272.0,,,,"Folkungagatan 140, 116 30 Stockholm, Sverige","Thai Restaurant, Tapas Restaurant"
44,44,44,516efc7683021c2971992c8b,Oaxen Krog & Slip,59.32233445012702,18.101524817545677,Beckholmsvägen 26,3356,115 21,SE,Stockholm,Storstockholm,Sverige,Scandinavian Restaurant,118.0,361.0,9.1,3.0,Credit Cards: Yes (incl. American Express & MasterCard),46855153105.0,oaxen,463279060398759.0,,"Beckholmsvägen 26 (Djurgården), 115 21 Stockholm, Sverige","Scandinavian Restaurant, Bistro"
45,45,45,5076a569e4b0c31497f38dfe,La Neta,59.31618479930215,18.075603995279806,Östgötagatan 12B,2554,116 25,SE,Stockholm,Storstockholm,Sverige,Taco Place,82.0,345.0,8.5,1.0,Credit Cards: Yes (incl. American Express),4686404020.0,,,,"Östgötagatan 12B (Kapellgränd), 116 25 Stockholm, Sverige","Taco Place, Mexican Restaurant"
46,46,46,56584880498ef1a0cfcd20d7,Organico,59.317915,18.060367000000006,Timmermansgatan 9,3011,118 55,SE,Stockholm,Storstockholm,Sverige,Vegetarian / Vegan Restaurant,10.0,35.0,8.7,2.0,Credit Cards: Yes,,,,,"Timmermansgatan 9, 118 55 Stockholm, Sverige","Vegetarian / Vegan Restaurant, Sandwich Place, Health Food Store"
47,47,47,4d7f40c74219a1cd359b70d3,Mae Thai,59.30951147973592,18.075822018097238,Götgatan 85,1825,,SE,Stockholm,Storstockholm,Sverige,Thai Restaurant,22.0,57.0,8.2,2.0,Credit Cards: Yes (incl. Visa & MasterCard),4686433128.0,,,,"Götgatan 85, Stockholm, Sverige","Thai Restaurant, Food Stand"
48,48,48,55604b50498e8dcd9a93acfb,Kaferang,59.31283788599695,18.083692081564077,Skånegatan 81,2141,116 35,SE,Stockholm,Storstockholm,Sverige,Café,34.0,101.0,8.3,1.0,Credit Cards: Yes,468844929.0,,,,"Skånegatan 81 (Nytorget), 116 35 Stockholm, Sverige",Café
49,49,49,4ec807722c5b532d07549a78,Barbro,59.314385,18.033198,Hornstull Strand 13,3681,117 39,SE,Stockholm,Storstockholm,Sverige,Asian Restaurant,47.0,197.0,9.3,2.0,Credit Cards: Yes,46855060266.0,,170491129701875.0,http://bar-bro.se/wp-content/uploads/2019/04/Meny-Va%CC%8Ar-2019.pdf,"Hornstull Strand 13, 117 39 Stockholm, Sverige","Asian Restaurant, Bistro"
50,50,50,4d31e4b8c75a6ea87ec108ae,Cafe Mariaberget,59.320225,18.062357,Blecktornsgränd 4,3200,,SE,Stockholm,Storstockholm,Sverige,Café,16.0,39.0,8.8,1.0,Credit Cards: Yes,4686688502.0,,,,"Blecktornsgränd 4, Stockholm, Sverige",Café
51,51,51,58c3f7529ab6636a0996e71c,Shaka Shaka Pokébar,59.315953241257674,18.03316504883879,Bergsunds Strand 51,3795,117 38,SE,Stockholm,Storstockholm,Sverige,Poke Place,18.0,64.0,9.3,,Credit Cards: Yes,4687105638.0,,1510915572293889.0,,"Bergsunds Strand 51, 117 38 Stockholm, Sverige",Poke Place
52,52,52,530725e711d2fb9f13a039d6,Meatballs For The People,59.314556,18.081467,Nytorgsgatan 30,2335,116 40,SE,Stockholm,Storstockholm,Sverige,Scandinavian Restaurant,148.0,501.0,8.3,2.0,Credit Cards: Yes (incl. American Express & MasterCard),4684666099.0,bockholmengrupp,401838299918429.0,http://meatball.se/eng/menu_1/,"Nytorgsgatan 30 (Kocksgatan), 116 40 Stockholm, Sverige","Scandinavian Restaurant, Deli / Bodega"
53,53,53,4adcdaecf964a520305a21e3,Blå Lotus,59.31189654007528,18.076788098655268,Katarina Bangata 21,2073,116 39,SE,Stockholm,Storstockholm,Sverige,Café,34.0,99.0,8.2,1.0,Credit Cards: Yes,4686445043.0,,137841566272427.0,,"Katarina Bangata 21, 116 39 Stockholm, Sverige",Café
54,54,54,573c91a4498e4b5f105e5ba1,Skeppsbro Bageri,59.3248,18.076228,Skeppsbron 15,3498,111 30,SE,Stockholm,Storstockholm,Sverige,Bakery,8.0,30.0,8.9,1.0,,,,538015576283577.0,https://www.skeppsbrobageri.com/produkter/,"Skeppsbron 15 (Tullhus 1), 111 30 Stockholm, Sverige","Bakery, Café"
55,55,55,59a180a4916bc16d67842f06,Bistro Boheme,59.31286899999999,18.083787,Skånegatan 81,2145,116 35,SE,Stockholm,Storstockholm,Sverige,Tapas Restaurant,1.0,10.0,8.2,3.0,Credit Cards: Yes (incl. Visa & MasterCard),,,,,"Skånegatan 81, 116 35 Stockholm, Sverige","Tapas Restaurant, Bar"
56,56,56,4b1cee77f964a5208c0a24e3,Folkbaren,59.318368227200686,18.058197466228453,Hornsgatan 72,3112,118 21,SE,Stockholm,Storstockholm,Sverige,Restaurant,22.0,132.0,8.6,2.0,Credit Cards: Yes,4686585180.0,,388554154632193.0,http://folkbaren.se/menyer/pa-kvallen/,"Hornsgatan 72, 118 21 Stockholm, Sverige","Restaurant, Wine Bar"
57,57,57,573052d0cd10a8203d77bdbb,Brisket & Friends,59.29952526387653,18.021696563101408,Upplagsvägen 18,3579,117 43,SE,Stockholm,Storstockholm,Sverige,BBQ Joint,12.0,33.0,8.9,2.0,Credit Cards: Yes,46708349540.0,,474253006107563.0,http://www.brisketandfriends.se/restaurangen-34833142,"Upplagsvägen 18, 117 43 Stockholm, Sverige",BBQ Joint
58,58,58,4b044c24f964a520085322e3,Palmyra Kebab,59.297135848957346,18.050374202555584,Årstavägen 57,1929,120 54,SE,Stockholm,Storstockholm,Sverige,Kebab Restaurant,54.0,121.0,8.1,,Credit Cards: Yes,468918012.0,,,,"Årstavägen 57 (Skedviksvägen), 120 54 Årsta, Sverige","Kebab Restaurant, Fast Food Restaurant"
59,59,59,4b068b68f964a520f6ec22e3,Louie Louie,59.31290600000001,18.078859,Bondegatan 13,2165,116 23,SE,Stockholm,Storstockholm,Sverige,Café,41.0,175.0,8.2,2.0,Credit Cards: Yes,4686400271.0,,,,"Bondegatan 13, 116 23 Stockholm, Sverige","Café, Sandwich Place, Bar"
60,60,60,53a92582498eacb3853e0379,Fabrique Stenugnsbageri,59.32362471559476,18.068699964361887,Lilla Nygatan 12,3447,111 28,SE,Stockholm,Storstockholm,Sverige,Bakery,31.0,127.0,8.7,1.0,Credit Cards: Yes,468208144.0,,,,"Lilla Nygatan 12 (Schönfeldts Gränd), 111 28 Stockholm, Sverige",Bakery
61,61,61,4adcdaecf964a520445a21e3,Fjällgatans Kaffestuga,59.31735635651086,18.087287324805448,Fjällgatan 37,2652,116 28,SE,Stockholm,Storstockholm,Sverige,Café,10.0,31.0,8.3,1.0,,4686431440.0,,194464717338964.0,,"Fjällgatan 37, 116 28 Stockholm, Sverige",Café
62,62,62,5b7529f59d74680039bb56e4,S:t Paul Bageri,59.317815708985776,18.064283398879358,Sankt Paulsgatan 24,2910,118 48,SE,Stockholm,Storstockholm,Sverige,Bakery,3.0,19.0,8.4,1.0,,,,,,"Sankt Paulsgatan 24, 118 48 Stockholm, Sverige","Bakery, Café"
63,63,63,5be2cfd86dcf04002cd31f5a,Lao Lao,59.317673,18.054137,Hornsgatan 63,3159,118 49,SE,Stockholm,Storstockholm,Sverige,Chinese Restaurant,8.0,24.0,8.5,1.0,Credit Cards: Yes (incl. Visa & MasterCard),46704888244.0,,970019683208732.0,,"Hornsgatan 63, 118 49 Stockholm, Sverige",Chinese Restaurant
64,64,64,558aeeda498e042ac4c969d3,Barobao,59.318515526387465,18.059617771218765,Hornsgatan 66,3090,,SE,Stockholm,Storstockholm,Sverige,Chinese Restaurant,45.0,159.0,8.4,2.0,Credit Cards: Yes (incl. American Express & MasterCard),4686437776.0,,,http://barobao.se/menu-barobao.pdf,"Hornsgatan 66, Stockholm, Sverige",Chinese Restaurant
65,65,65,4bdb121363c5c9b6ff2e2668,Mathias Dahlgrens Matbaren,59.32921854496252,18.07594781510512,Södra Blasieholmshamnen 6,3988,111 48,SE,Stockholm,Storstockholm,Sverige,Scandinavian Restaurant,57.0,155.0,8.9,3.0,Credit Cards: Yes,4686793584.0,,,,"Södra Blasieholmshamnen 6 (Grand Hôtel), 111 48 Stockholm, Sverige",Scandinavian Restaurant
66,66,66,5a1963a993bd632e5ac3434e,Omayma,59.31258967350882,18.082097842660254,Skånegatan 92,2115,116 37,SE,Stockholm,Storstockholm,Sverige,Café,6.0,20.0,8.0,1.0,Credit Cards: Yes (incl. Visa & MasterCard),,,,,"Skånegatan 92, 116 37 Stockholm, Sverige",Café
67,67,67,4adcdaf1f964a520775b21e3,Ulla Winbladh,59.328201675580814,18.099791898726302,Rosendalsvägen 8,3960,115 21,SE,Stockholm,Storstockholm,Sverige,Scandinavian Restaurant,36.0,124.0,8.8,2.0,Credit Cards: Yes,46853489701.0,,148588578538876.0,,"Rosendalsvägen 8, 115 21 Stockholm, Sverige",Scandinavian Restaurant
68,68,68,5a8be5bd1953f33b9ab57b86,Scandwich,59.30254669526945,18.00883412361145,Vattenledningsvägen 44,4364,126 33,SE,Stockholm,Storstockholm,Sverige,Sandwich Place,5.0,19.0,9.1,1.0,Credit Cards: Yes,46735313393.0,,556157128066842.0,,"Vattenledningsvägen 44, 126 33 Hägersten, Sverige",Sandwich Place
69,69,69,4c14d85da9c220a1711d589d,Brygghusets café,59.3102271016745,18.128654543313004,Vattenledningsvägen 44,3159,,SE,Nacka,Storstockholm,Sverige,Café,2.0,15.0,8.4,1.0,,,,,,"Nacka, Sverige",Café
70,70,70,595e5ecd8194fc3200cf6d6b,Centan,59.277157,18.132544,Lagaplan 5,3330,128 45,SE,Stockholm,Storstockholm,Sverige,Scandinavian Restaurant,2.0,13.0,8.4,2.0,Credit Cards: Yes (incl. Visa & MasterCard),,,,,"Lagaplan 5, 128 45 Stockholm, Sverige","Scandinavian Restaurant, Modern European Restaurant"
71,71,71,4f3a423de4b0a81c49c1f099,Speceriet,59.33382044541664,18.080869181242267,Artillerigatan 14,4479,114 51,SE,Stockholm,Storstockholm,Sverige,Scandinavian Restaurant,54.0,192.0,9.3,2.0,Credit Cards: Yes,4686623060.0,,,,"Artillerigatan 14, 114 51 Stockholm, Sverige",Scandinavian Restaurant
72,72,72,4da1de069aa4721e8f98031a,Fang Yuan Shi Wu,59.310338,18.082133,Södermannagatan 37,1865,116 40,SE,Stockholm,Storstockholm,Sverige,Dumpling Restaurant,47.0,116.0,7.9,1.0,Credit Cards: Yes,46730732525.0,,292968160725935.0,,"Södermannagatan 37 (Gotlandsgatan), 116 40 Stockholm, Sverige","Dumpling Restaurant, Chinese Restaurant"
73,73,73,4adcdaebf964a520c65921e3,Blå Dörren,59.32044000000001,18.070461,"Södermalmstorg 6, Slussen, Stockholm",3079,116 45,SE,Stockholm,Storstockholm,Sverige,Scandinavian Restaurant,57.0,159.0,8.3,2.0,Credit Cards: Yes (incl. American Express),4687430743.0,,,,"Södermalmstorg 6, Slussen, Stockholm, 116 45 Stockholm, Sverige","Scandinavian Restaurant, Gastropub"
74,74,74,55251d29498e5319aefd5c71,Konditorn & Bagarn,59.256211356556655,18.0812151760745,Pepparvägen 11,4164,,SE,Hökarängen,Farsta,Sverige,Bakery,7.0,23.0,8.8,1.0,Credit Cards: Yes,46842060060.0,,1645822375645683.0,,"Pepparvägen 11, Hökarängen, Sverige",Bakery
75,75,75,4bb7282bef159c7406db76f7,Mälarpaviljongen,59.32728692193347,18.034185906691423,Norr Mälarstrand 64,4684,112 35,SE,Stockholm,Storstockholm,Sverige,Restaurant,87.0,421.0,9.3,2.0,Credit Cards: Yes (incl. Visa & MasterCard),4686508701.0,,140472412690545.0,,"Norr Mälarstrand 64 (Polhemsgatan), 112 35 Stockholm, Sverige",Restaurant
76,76,76,5308ac23498eb868423257e1,Skroten café & skeppshandel,59.32223363935342,18.10002296464946,Beckholmsvägen 14,3321,115 21,SE,Stockholm,Storstockholm,Sverige,Café,9.0,22.0,8.3,1.0,,,,,,"Beckholmsvägen 14, 115 21 Stockholm, Sverige",Café
77,77,77,4eac44917ee5cd8bce3d4a5e,Gastrologik,59.333702004848156,18.080833439895443,Artillerigatan 14,4466,114 51,SE,Stockholm,Storstockholm,Sverige,Scandinavian Restaurant,25.0,68.0,9.0,4.0,Credit Cards: Yes,4686623060.0,,,,"Artillerigatan 14, 114 51 Stockholm, Sverige",Scandinavian Restaurant
78,78,78,4adcdaf0f964a520345b21e3,Eriks Bakficka,59.33291710201844,18.093604288039018,Fredrikshovsgatan 4,4413,115 23,SE,Stockholm,Storstockholm,Sverige,Scandinavian Restaurant,15.0,38.0,8.9,2.0,Credit Cards: Yes,4686601599.0,,,,"Fredrikshovsgatan 4, 115 23 Stockholm, Sverige","Scandinavian Restaurant, French Restaurant"
79,79,79,5b014fa6780eee002c89021b,Glashuset Restaurang & Bar,59.33127516155131,18.082579973739886,Strandvägen,4194,114 56,SE,Stockholm,Storstockholm,Sverige,Scandinavian Restaurant,5.0,22.0,8.7,2.0,Credit Cards: Yes,4686660202.0,,,http://glashuset.com/pdf/Glashuset_meny_sv_eng_web_20180523.pdf,"Strandvägen (Kajplats 18), 114 56 Stockholm, Sverige",Scandinavian Restaurant
80,80,80,4bbb25443db7b71384f4239a,Lisa Elmqvist,59.336024913775866,18.078248940505976,"Humlegårdsgatan 1, Östermalms Saluhall",4732,114 46,SE,Stockholm,Storstockholm,Sverige,Seafood Restaurant,61.0,160.0,9.2,3.0,Credit Cards: Yes,46855340400.0,lisaelmqvist,172703132770280.0,https://lisaelmqvist.se/sv/restaurang/restaurangmeny,"Humlegårdsgatan 1, Östermalms Saluhall (Humlegårdsgatan), 114 46 Stockholm, Sverige",Seafood Restaurant
81,81,81,5594126c498e6d926dfce1b5,Docklands,59.31595701338465,18.124186797938343,Finnboda Varvsväg 18,3393,,SE,Nacka,Storstockholm,Sverige,Restaurant,9.0,19.0,8.3,2.0,Credit Cards: Yes,,docklandskrog,,,"Finnboda Varvsväg 18, Nacka Kommun, Sverige",Restaurant
82,82,82,5548ac17498ecd74c198cbf1,Maxos,59.33225261288242,18.044984272958235,Scheelegatan 13,4829,,SE,Stockholm,Storstockholm,Sverige,Falafel Restaurant,23.0,90.0,9.1,2.0,Credit Cards: Yes,46760367718.0,,867351060004829.0,,"Scheelegatan 13, Stockholm, Sverige",Falafel Restaurant
83,83,83,4c63fd4479d1e21eacddd915,Café Stiernan,59.3234061373221,18.07359749940649,Österlånggatan 45,3366,,SE,Storkyrkan,Storstockholm,Sverige,Noodle House,28.0,77.0,8.3,1.0,Credit Cards: Yes (incl. Visa & MasterCard),4684118400.0,,,,"Österlånggatan 45, Stockholm, Sverige",Noodle House
84,84,84,56dbde7b498e2649a18f7438,Thongwiset Thai Restaurang,59.31711,18.04943,Hornsgatan 85,3258,117 26,SE,Stockholm,Storstockholm,Sverige,Thai Restaurant,8.0,19.0,8.2,2.0,,4686691800.0,,,,"Hornsgatan 85, 117 26 Stockholm, Sverige",Thai Restaurant
85,85,85,558912a7498e2fb39a27839f,A.B.Café,59.29957421458804,17.998732087104088,Valborgsmässovägen 34,4869,126 37,SE,Stockholm,Storstockholm,Sverige,Café,18.0,70.0,9.1,1.0,Credit Cards: Yes,468183138.0,,1448131168841736.0,,"Valborgsmässovägen 34 (Trettondagsvägen), 126 37 Hägersten, Sverige","Café, Coffee Shop, Breakfast Spot"
86,86,86,5cb1cd6375eee4002c92ed6d,Bastard Burgers,59.33155328359071,18.066902963910245,Brunkebergstorg 10,4330,111 51,SE,Stockholm,Storstockholm,Sverige,Burger Joint,2.0,19.0,8.7,1.0,Credit Cards: Yes,468207819.0,burgersbastard,,,"Brunkebergstorg 10, 111 51 Stockholm, Sverige",Burger Joint
87,87,87,4adcdaf0f964a520485b21e3,Bakfickan,59.33019399999999,18.070884,Jakobs torg 12,4137,111 47,SE,Stockholm,Storstockholm,Sverige,Scandinavian Restaurant,132.0,349.0,8.6,3.0,Credit Cards: Yes (incl. Visa),4686765808.0,,,,"Jakobs torg 12, 111 47 Stockholm, Sverige",Scandinavian Restaurant
88,88,88,4ec50343d3e3098aeb0e826f,Ekstedt,59.3367415,18.0749434,Humlegårdsgatan 17,4827,114 46,SE,Stockholm,Storstockholm,Sverige,Scandinavian Restaurant,34.0,98.0,8.9,2.0,Credit Cards: Yes (incl. American Express & MasterCard),4686111210.0,niklasekstedt,1771070453163988.0,http://ekstedt.nu/english/menu/,"Humlegårdsgatan 17, 114 46 Stockholm, Sverige",Scandinavian Restaurant
89,89,89,50411c6ce4b09690b1a0bccc,Tjoget,59.3161485381493,18.03499962481768,Hornsbruksgatan 24,3731,117 34,SE,Stockholm,Storstockholm,Sverige,Scandinavian Restaurant,24.0,79.0,8.3,2.0,Credit Cards: Yes (incl. American Express & MasterCard),468220021.0,tjogethornstull,,,"Hornsbruksgatan 24 (Borgargatan), 117 34 Stockholm, Sverige","Scandinavian Restaurant, General Entertainment, Bar"
90,90,90,4b59a57bf964a520a49028e3,Petite France,59.328024,18.03694,John Ericssonsgatan 6,4659,112 22,SE,Stockholm,Storstockholm,Sverige,Café,84.0,286.0,8.8,1.0,Credit Cards: Yes,4686182800.0,,,,"John Ericssonsgatan 6, 112 22 Stockholm, Sverige","Café, Breakfast Spot"
91,91,91,4b56e795f964a520c21e28e3,Nybrogatan 38,59.3377953,18.0799596,Nybrogatan 38,4924,114 40,SE,Stockholm,Storstockholm,Sverige,Scandinavian Restaurant,100.0,380.0,8.9,2.0,Credit Cards: Yes,4686623322.0,bockholmengrupp,319999048038338.0,http://www.nybrogatan38.com/meny/kvallsmatsedel/,"Nybrogatan 38, 114 40 Stockholm, Sverige",Scandinavian Restaurant
92,92,92,4adcdaf0f964a5203a5b21e3,Teatergrillen,59.33374580527924,18.07610092362129,Nybrogatan 3,4489,114 34,SE,Stockholm,Storstockholm,Sverige,Scandinavian Restaurant,10.0,43.0,8.6,2.0,Credit Cards: Yes,46854503565.0,,,http://teatergrillen.se/images/users/PDF/Webbmenyer/Teatergrillenmeny.pdf,"Nybrogatan 3, 114 34 Stockholm, Sverige",Scandinavian Restaurant
93,93,93,58c1328e88cfcc5404a55f7c,TAK,59.33073627852783,18.067112159151424,Brunkebergstorg 4,4238,111 51,SE,Stockholm,Storstockholm,Sverige,Scandinavian Restaurant,51.0,242.0,8.5,2.0,Credit Cards: Yes,46858722080.0,,673951252757077.0,,"Brunkebergstorg 4, 111 51 Stockholm, Sverige","Scandinavian Restaurant, Japanese Restaurant, Cocktail Bar"
94,94,94,56fa3452498eb36a545a556d,Bun Meat Bun,59.31429756799487,18.070958865356367,Medborgarplatsen 3,2413,118 26,SE,Stockholm,Storstockholm,Sverige,Burger Joint,22.0,70.0,7.9,1.0,Credit Cards: Yes,46812147224.0,bunmeatbun,133869323419901.0,,"Medborgarplatsen 3, 118 26 Stockholm, Sverige",Burger Joint
95,95,95,4bdadc902a3a0f471547acb6,Vintervikens Trädgårdskafé,59.311146,17.999018,Vinterviksvägen 30,5188,117 65,SE,Stockholm,Storstockholm,Sverige,Café,16.0,82.0,9.2,1.0,Credit Cards: Yes,46738929099.0,,222438727782309.0,http://vinterviken.com/meny/,"Vinterviksvägen 30, 117 65 Stockholm, Sverige","Café, Garden Center"
96,96,96,4f9ad2b5e4b0d2a3a82669da,Pane Vino,59.317861,18.049853,Brännkyrkagatan 93,3312,117 26,SE,Stockholm,Storstockholm,Sverige,Italian Restaurant,70.0,235.0,8.1,2.0,Credit Cards: Yes,4687203550.0,,321825657915901.0,http://panevino.se/menu/,"Brännkyrkagatan 93 (Ringvägen), 117 26 Stockholm, Sverige","Italian Restaurant, Pizza Place, Gourmet Shop"
97,97,97,56e03161498efee8018c52fd,Ma Baker,59.28371644797724,18.114460502496524,Kärrtorpsplan 7,2070,121 55,SE,Johanneshov,Storstockholm,Sverige,Bakery,1.0,13.0,7.8,1.0,,46761182485.0,,,,"Kärrtorpsplan 7, 121 55 Johanneshov, Sverige","Bakery, Café"
98,98,98,59b2bc336c08d1773006a6c3,Frantzén,59.33385430000001,18.05851949999999,Klara Norra kyrkogata 26,4702,111 22,SE,Stockholm,Storstockholm,Sverige,Scandinavian Restaurant,7.0,22.0,8.7,2.0,Credit Cards: Yes,468208580.0,,126569434175391.0,,"Klara Norra kyrkogata 26, 111 22 Stockholm, Sverige",Scandinavian Restaurant
99,99,99,59008f05d48ec15bc0a2e02e,Indian Street Food & Co.,59.33692179997988,18.058283329010013,Drottninggatan 73,5032,111 23,SE,Stockholm,Storstockholm,Sverige,Indian Restaurant,17.0,102.0,9.0,2.0,Credit Cards: Yes (incl. Visa & MasterCard),4687540056.0,indiansfsweden,653615644680036.0,,"Drottninggatan 73, 111 23 Stockholm, Sverige",Indian Restaurant
100,100,100,5b782ed8603d2a002cd8998e,Fabelbar,59.305644,18.000773000000006,Hägerstensvägen 132,4894,126 48,SE,Stockholm,Storstockholm,Sverige,Bistro,3.0,10.0,8.9,,,,,,,"Hägerstensvägen 132, 126 48 Stockholm, Sverige",Bistro
101,101,101,4cee33f362ef6dcb4988f759,Valhallabageriet,59.339099459729994,18.097470750019955,Valhallavägen 174,5125,115 27,SE,Stockholm,Storstockholm,Sverige,Bakery,31.0,90.0,9.0,1.0,Credit Cards: Yes,4686629763.0,,,,"Valhallavägen 174, 115 27 Stockholm, Sverige",Bakery
102,102,102,4b18ff8ff964a52007d723e3,Indian Garden,59.312291477903536,18.07155526970241,Västgötagatan 18,2190,118 27,SE,Stockholm,Storstockholm,Sverige,Indian Restaurant,41.0,121.0,7.8,2.0,Credit Cards: Yes,4686407430.0,,,,"Västgötagatan 18 (Åsögatan), 118 27 Stockholm, Sverige",Indian Restaurant
103,103,103,5117adc1c84c8398da8ba2bd,Svenska Hamburgerköket,59.30012900000001,18.00398,Tellusborgsvägen 78,4583,126 37,SE,Stockholm,Storstockholm,Sverige,Burger Joint,66.0,198.0,8.6,2.0,Credit Cards: Yes (incl. American Express & MasterCard),46868441343.0,,,,"Tellusborgsvägen 78, 126 37 Hägersten, Sverige","Burger Joint, Beer Garden"
104,104,104,4c1c92b7b9f876b0fa227c46,Lundbergs Konditori,59.3159713,18.010374800000022,Sjöbjörnsvägen 2,4849,117 67,SE,Stockholm,Storstockholm,Sverige,Bakery,12.0,41.0,8.8,1.0,Credit Cards: Yes,4686452034.0,,279873458816795.0,,"Sjöbjörnsvägen 2 (Gröndalsvägen), 117 67 Stockholm, Sverige","Bakery, Café"
105,105,105,4adcdaf0f964a520495b21e3,Rolfs Kök,59.338751,18.057014,Tegnérgatan 41,5248,111 61,SE,Stockholm,Storstockholm,Sverige,Scandinavian Restaurant,180.0,517.0,9.1,3.0,Credit Cards: Yes (incl. American Express),468101696.0,,,,"Tegnérgatan 41, 111 61 Stockholm, Sverige",Scandinavian Restaurant
106,106,106,4c19f2f9838020a17270e661,Orangeriet,59.32644673376238,18.04396431329224,Norr Mälarstrand Kajplats 464,4294,112 20,SE,Stockholm,Storstockholm,Sverige,Italian Restaurant,30.0,183.0,8.4,2.0,Credit Cards: Yes (incl. American Express & MasterCard),46868423875.0,nsvanstrom,,,"Norr Mälarstrand Kajplats 464, 112 20 Stockholm, Sverige","Italian Restaurant, Pizza Place, Cocktail Bar"
107,107,107,4adcdaecf964a520105a21e3,Sturehof,59.33595849294205,18.073129465411625,Stureplan 2,4752,111 37,SE,Stockholm,Storstockholm,Sverige,Scandinavian Restaurant,130.0,499.0,8.7,3.0,Credit Cards: Yes (incl. American Express & MasterCard),4684405730.0,sturehofskocken,130971160304325.0,,"Stureplan 2, 111 37 Stockholm, Sverige","Scandinavian Restaurant, Seafood Restaurant, Cocktail Bar"
108,108,108,4bc99e940687ef3b1031dacc,Restauration Gubbhyllan,59.32483886379123,18.100984614053168,Skansen,3615,,SE,Stockholm,Storstockholm,Sverige,Scandinavian Restaurant,5.0,16.0,8.2,2.0,Credit Cards: Yes,4684428026.0,,,,"Skansen, Stockholm, Sverige","Scandinavian Restaurant, Café, Organic Grocery"
109,109,109,4adcdaecf964a5200b5a21e3,Café Dello Sport,59.31835596093271,18.035340271094974,Pålsundsgatan 8,3887,117 31,SE,Stockholm,Storstockholm,Sverige,Italian Restaurant,21.0,50.0,8.3,2.0,Credit Cards: Yes,4686687488.0,,,,"Pålsundsgatan 8, 117 31 Stockholm, Sverige","Italian Restaurant, Café, Pizza Place"
110,110,110,4d7124bf0bcc224bf4381259,AG Restaurang & Bar,59.335197523136976,18.034913650432504,Kronobergsgatan 37,5393,112 33,SE,Stockholm,Storstockholm,Sverige,Steakhouse,95.0,337.0,9.1,4.0,Credit Cards: Yes (incl. American Express & MasterCard),46841068100.0,,164896206896426.0,http://www.restaurangag.se/wp-content/themes/capricorn/meny/MatMeny_AG_webben.pdf,"Kronobergsgatan 37, 112 33 Stockholm, Sverige","Steakhouse, Bar"
111,111,111,4f2d7313e4b083c4273a5328,Chong Qing,59.31299739999999,18.028480100000024,Liljeholmsvägen 8,3804,,SE,Stockholm,Storstockholm,Sverige,Chinese Restaurant,23.0,63.0,8.2,1.0,Credit Cards: Yes (incl. Visa & MasterCard),4686451149.0,,254372118029480.0,,"Liljeholmsvägen 8, Stockholm, Sverige",Chinese Restaurant
112,112,112,4af18c17f964a5204ee121e3,Vurma,59.315474,18.029567,Bergsunds Strand 31,3918,117 35,SE,Stockholm,Storstockholm,Sverige,Café,33.0,137.0,8.3,1.0,Credit Cards: Yes (incl. Visa & MasterCard),4686690960.0,,390112784391004.0,,"Bergsunds Strand 31 (at Bergsundsgatan), 117 35 Stockholm, Sverige","Café, Salad Place, Sandwich Place"
113,113,113,4b5d79b4f964a5203a5e29e3,Kajsas Fisk,59.33452074573018,18.06230166096553,Hötorgshallen 3,4713,111 57,SE,Stockholm,Storstockholm,Sverige,Seafood Restaurant,62.0,138.0,8.6,3.0,Credit Cards: Yes (incl. Visa & MasterCard),468207262.0,,,,"Hötorgshallen 3, 111 57 Stockholm, Sverige",Seafood Restaurant
114,114,114,557561e6498e2a6bb7550f1a,Krubb,59.333144457396486,18.043616101702682,Carl-Gustaf Lindstedts gata 2,4953,112 69,SE,Stockholm,Storstockholm,Sverige,Burger Joint,19.0,49.0,8.7,1.0,Credit Cards: Yes (incl. NFC Payments & MasterCard),46709244734.0,,758245077625983.0,,"Carl-Gustaf Lindstedts gata 2, 112 69 Stockholm, Sverige",Burger Joint
115,115,115,59a910f8acb00b097b7434a5,Gast,59.33981823199378,18.05663347247394,Rådmansgatan 57,5368,113 60,SE,Stockholm,Storstockholm,Sverige,Café,22.0,106.0,9.0,1.0,Credit Cards: Yes,468270222.0,,121060388554415.0,,"Rådmansgatan 57, 113 60 Stockholm, Sverige",Café
116,116,116,58e912649f25836797512d87,Meno Male Kungsholmen,59.32880299726967,18.045111324107765,Hantverkargatan 14,4487,112 21,SE,Stockholm,Storstockholm,Sverige,Pizza Place,20.0,67.0,8.4,1.0,,468141410.0,,,,"Hantverkargatan 14 (Pipersgatan), 112 21 Stockholm, Sverige","Pizza Place, Italian Restaurant"
117,117,117,4adcdaebf964a520b45921e3,Riche,59.33362969584118,18.07539431458287,Birger Jarlsgatan 4,4480,114 34,SE,Stockholm,Storstockholm,Sverige,Scandinavian Restaurant,131.0,555.0,8.4,3.0,Credit Cards: Yes (incl. American Express),46854503560.0,,125893024135622.0,,"Birger Jarlsgatan 4, 114 34 Stockholm, Sverige","Scandinavian Restaurant, Cocktail Bar"
118,118,118,4f36a4c2e4b0beedd121dfd6,Adam/Albin,59.34291999999999,18.065931,Rådmansgatan 16,5581,114 25,SE,Stockholm,Storstockholm,Sverige,Scandinavian Restaurant,22.0,131.0,9.1,2.0,Credit Cards: Yes,4684115535.0,,,,"Rådmansgatan 16 (btwn Karlavägen & Fryxellsgatan), 114 25 Stockholm, Sverige",Scandinavian Restaurant
119,119,119,53062212498e13c3403aac70,Café Pascal,59.34201941754685,18.051979609456442,Norrtullsgatan 4,5681,113 29,SE,Stockholm,Storstockholm,Sverige,Café,160.0,575.0,9.3,2.0,Credit Cards: Yes,468316110.0,,583464158367646.0,,"Norrtullsgatan 4 (Sandåsgatan), 113 29 Stockholm, Sverige","Café, Coffee Shop"
120,120,120,5566e50a498ecc78bd6d408c,Diwan,59.34073333129454,18.091595179879395,Valhallavägen 153,5266,115 31,SE,Stockholm,Storstockholm,Sverige,Persian Restaurant,3.0,20.0,8.8,,Credit Cards: Yes (incl. Visa & MasterCard),4686673757.0,,1489717021288096.0,http://www.diwan.se/meny,"Valhallavägen 153, 115 31 Stockholm, Sverige",Persian Restaurant
121,121,121,5b9788ff2b274a002cf71d06,Meno Male Östermalm,59.33800242076022,18.081296682357788,Sibyllegatan 47,4944,114 42,SE,Stockholm,Storstockholm,Sverige,Pizza Place,5.0,18.0,8.6,1.0,Credit Cards: Yes,468141410.0,,,,"Sibyllegatan 47, 114 42 Stockholm, Sverige","Pizza Place, Italian Restaurant"
122,122,122,5b438aa3ca18ea002cd98be6,Naked fish,59.330632,18.050017,Kungsholmsgatan 4A,4542,112 27,SE,Stockholm,Storstockholm,Sverige,Sushi Restaurant,6.0,6.0,8.4,2.0,,468298910.0,,,,"Kungsholmsgatan 4A, 112 27 Stockholm, Sverige",Sushi Restaurant
123,123,123,4cb0539e562d224bea3c1588,Fabrique stenugnsbageri,59.31595704240701,18.05609551830745,Rosenlundsgatan 28,2938,118 53,SE,Stockholm,Storstockholm,Sverige,Bakery,12.0,72.0,7.9,1.0,Credit Cards: Yes,468390737.0,stenugnsbageri,,,"Rosenlundsgatan 28 (at Wollmar Yxkullsgatan), 118 53 Stockholm, Sverige","Bakery, Café"
124,124,124,592abe5bda2e0026b1c4775d,Barrels Burgers & Beer,59.333572,18.070965,Smålandsgatan 22,4507,111 46,SE,Stockholm,Storstockholm,Sverige,Burger Joint,21.0,110.0,8.4,1.0,Credit Cards: Yes,,,,http://barrels.se/meny/city,"Smålandsgatan 22, 111 46 Stockholm, Sverige","Burger Joint, Beer Bar"
125,125,125,4e7074dbaeb7424433883426,Miss Voon,59.338491365995395,18.074875796352465,Sturegatan 22,5021,114 36,SE,Stockholm,Storstockholm,Sverige,Asian Restaurant,58.0,165.0,8.6,2.0,Credit Cards: Yes,46850524470.0,,,,"Sturegatan 22, 114 36 Stockholm, Sverige","Asian Restaurant, Cocktail Bar"
126,126,126,4bc0c63fabf4952198d8bf93,Lux Dag för Dag,59.322993,18.007087,Primusgatan 105,5441,112 67,SE,Stockholm,Storstockholm,Sverige,Scandinavian Restaurant,22.0,78.0,8.9,2.0,Credit Cards: Yes (incl. Visa),4686190190.0,,,,"Primusgatan 105, 112 67 Stockholm, Sverige",Scandinavian Restaurant
127,127,127,51041df0e4b073eb96e6d58e,Farang,59.34160154659333,18.062363697422366,Tulegatan 7,5477,113 53,SE,Stockholm,Storstockholm,Sverige,Asian Restaurant,78.0,368.0,8.9,2.0,Credit Cards: Yes (incl. American Express & MasterCard),4686737400.0,farangstockholm,408141752582666.0,,"Tulegatan 7 (Rådmansgatan), 113 53 Stockholm, Sverige","Asian Restaurant, Thai Restaurant, Cocktail Bar"
128,128,128,5436b49b498e5eeeb3351f1f,Kommendören,59.33915878835433,18.077295132440764,Kommendörsgatan 7,5084,114 48,SE,Stockholm,Storstockholm,Sverige,Modern European Restaurant,8.0,68.0,8.6,,Credit Cards: Yes (incl. American Express & MasterCard),4686616700.0,,1476923929237267.0,http://www.kommendoren.se/meny,"Kommendörsgatan 7 (Brahegatan), 114 48 Stockholm, Sverige",Modern European Restaurant
129,129,129,57ae2bf7498ed2678a5b36ae,Portal,59.33896045148193,18.03916454315185,S:t Eriksplan 1,5645,112 34,SE,Stockholm,Storstockholm,Sverige,Modern European Restaurant,14.0,53.0,9.0,,Credit Cards: Yes (incl. Visa & MasterCard),468301101.0,,1061045303969175.0,,"S:t Eriksplan 1 (Torsgatan), 112 34 Stockholm, Sverige",Modern European Restaurant
130,130,130,4af7f9e2f964a520a40a22e3,La Neta,59.33654027472968,18.05813109259102,Barnhusgatan 2,4994,111 23,SE,Stockholm,Storstockholm,Sverige,Taco Place,175.0,578.0,8.6,1.0,Credit Cards: Yes,4684115880.0,somoslaneta,112725197291.0,,"Barnhusgatan 2, 111 23 Stockholm, Sverige",Taco Place
131,131,131,546bd0bf498e2c2a5b40795c,Franky's,59.33981559819763,18.060429096221927,Tegnérgatan 16,5310,111 40,SE,Stockholm,Storstockholm,Sverige,Burger Joint,20.0,53.0,8.8,1.0,Credit Cards: Yes,468227722.0,,1521921874691695.0,,"Tegnérgatan 16, 111 40 Stockholm, Sverige",Burger Joint
132,132,132,584adf7a0319b8761c0de9d4,Lillebrors Bageri,59.34001439883164,18.033859451463552,Rörstrandsgatan 12,5888,113 40,SE,Stockholm,Storstockholm,Sverige,Bakery,13.0,37.0,9.3,1.0,Credit Cards: Yes,,,251885791892973.0,,"Rörstrandsgatan 12, 113 40 Stockholm, Sverige",Bakery
133,133,133,592b0307f62e0970eb54b2b8,MGL Sushi,59.307217,18.026964000000003,Fredsborgstorget 6,3557,117 60,SE,Stockholm,Storstockholm,Sverige,Sushi Restaurant,3.0,12.0,8.0,2.0,Credit Cards: Yes (incl. Visa & MasterCard),46842001700.0,,,https://mglsushi.se/meny-liljeholmskajen,"Fredsborgstorget 6, 117 60 Stockholm, Sverige",Sushi Restaurant
134,134,134,5237249a11d239c3d043753e,Lilla Ego,59.34356999999999,18.045528,Västmannagatan 69,5968,113 26,SE,Stockholm,Storstockholm,Sverige,Scandinavian Restaurant,44.0,169.0,9.4,3.0,Credit Cards: Yes,468274455.0,lillaego_krog,,,"Västmannagatan 69, 113 26 Stockholm, Sverige","Scandinavian Restaurant, Modern European Restaurant"
135,135,135,528e762f11d295ab1ee6fae6,Flippin' Burgers,59.34057347629869,18.050908253814054,Observatoriegatan 8,5548,113 29,SE,Stockholm,Storstockholm,Sverige,Burger Joint,206.0,604.0,8.9,2.0,Credit Cards: Yes,4686540300.0,flippin_se,,,"Observatoriegatan 8 (Upplandsgatan), 113 29 Stockholm, Sverige","Burger Joint, Bar"
136,136,136,5728e6ea498ef40360e9b6a8,Matsu Sushi,59.318479,18.058531,Hornsgatan 94,3114,118 21,SE,Stockholm,Storstockholm,Sverige,Sushi Restaurant,4.0,9.0,7.9,2.0,,468849740.0,,,,"Hornsgatan 94, 118 21 Stockholm, Sverige",Sushi Restaurant
137,137,137,5ad4d30ae0c0c95f1ec081ac,BaP - Burgers and Pastrami,59.33680479159396,18.082304475475148,Linnégatan 38,4810,114 47,SE,Stockholm,Storstockholm,Sverige,American Restaurant,6.0,18.0,8.4,2.0,,,,,,"Linnégatan 38, 114 47 Stockholm, Sverige","American Restaurant, Burger Joint, Sandwich Place"
138,138,138,5729dd0c498e1b2c0e75fe70,Restaurang Hantverket,59.34142778437714,18.076879017762774,Sturegatan 15,5337,114 36,SE,Stockholm,Storstockholm,Sverige,Scandinavian Restaurant,7.0,49.0,8.7,2.0,Credit Cards: Yes,46812132160.0,,860926490683462.0,http://restauranghantverket.se/en/dinner/,"Sturegatan 15, 114 36 Stockholm, Sverige","Scandinavian Restaurant, Bar"
139,139,139,4c64e6795e61d13abda8ba85,Verandan,59.32952257573458,18.075072798824642,Södra Blasieholmshamnen 8,4028,103 27,SE,Stockholm,Storstockholm,Sverige,Scandinavian Restaurant,7.0,36.0,8.1,2.0,Credit Cards: Yes,4686793586.0,grandhotelsthlm,,,"Södra Blasieholmshamnen 8, 103 27 Stockholm, Sverige","Scandinavian Restaurant, Breakfast Spot, Bar"
140,140,140,58f4bb6f51950e59f04d2c05,Holy Greens,59.331720406673234,18.068477923516184,Regeringsgatan 28,4329,111 53,SE,Stockholm,Storstockholm,Sverige,Salad Place,9.0,36.0,8.2,1.0,Credit Cards: Yes,468226222.0,holygreens_se,178881888965490.0,,"Regeringsgatan 28, 111 53 Stockholm, Sverige",Salad Place
141,141,141,4fac9eaee4b0faae2cf6bb4a,Le Violon Dingue,59.33629064674575,18.061386644840237,Olof Palmes Gata 12,4916,111 37,SE,Stockholm,Storstockholm,Sverige,Bakery,25.0,81.0,8.4,1.0,Credit Cards: Yes,46856297373.0,,327334957315790.0,,"Olof Palmes Gata 12, 111 37 Stockholm, Sverige",Bakery
142,142,142,54f714f9498e6d95caee8f2c,800 grader,59.342145,18.040774,Sigtunagatan 17,5926,,SE,Stockholm,Storstockholm,Sverige,Pizza Place,48.0,137.0,9.1,1.0,Credit Cards: Yes,46708589598.0,,278299515714264.0,,"Sigtunagatan 17, Stockholm, Sverige",Pizza Place
143,143,143,4b65702df964a52092f02ae3,Flickorna Helin,59.32859300000001,18.1025217,Rosendalsvägen 14,4040,115 21,SE,Stockholm,Storstockholm,Sverige,Café,15.0,61.0,8.1,1.0,Credit Cards: Yes,4686645108.0,,256064661078170.0,,"Rosendalsvägen 14 (Skånska Gruvan), 115 21 Stockholm, Sverige","Café, Bakery"
144,144,144,565d6c00498eb925f0be5db2,Jim & Jacob,59.3452661543171,18.05653399981825,Surbrunnsgatan 38,5953,113 48,SE,Stockholm,Storstockholm,Sverige,Scandinavian Restaurant,7.0,49.0,9.1,2.0,Credit Cards: Yes,468150115.0,,,,"Surbrunnsgatan 38, 113 48 Stockholm, Sverige","Scandinavian Restaurant, French Restaurant"
145,145,145,59ae930748b04e2920cafdeb,Bullar & Bröd,59.346599425822774,18.06869450796653,Valhallavägen 65,5960,114 28,SE,Stockholm,Storstockholm,Sverige,Café,7.0,29.0,9.1,1.0,,,,,,"Valhallavägen 65, 114 28 Stockholm, Sverige","Café, Bakery"
146,146,146,58c6c5686ad73d0d99571e20,18|89 Fast Fine Pizza,59.33426521080255,18.070620010608906,Mäster Samuelsgatan 18,4586,111 44,SE,Stockholm,Storstockholm,Sverige,Pizza Place,25.0,60.0,8.3,1.0,Credit Cards: Yes (incl. American Express & MasterCard),,,389876678014960.0,http://1889.pizza/wp-content/uploads/2017/04/meny-uppslag.pdf,"Mäster Samuelsgatan 18, 111 44 Stockholm, Sverige",Pizza Place
147,147,147,527d306d11d2c9e38af58c2e,Cafe Facile,59.34389415738943,18.05723231479239,Luntmakargatan 99,5795,113 51,SE,Stockholm,Storstockholm,Sverige,French Restaurant,14.0,52.0,8.9,3.0,Credit Cards: Yes,468326103.0,cafefacile,,,"Luntmakargatan 99, 113 51 Stockholm, Sverige",French Restaurant
148,148,148,4dc024fb81545e1cc7dda206,Svartengrens,59.345947,18.058882,Tulegatan 24,5993,113 53,SE,Stockholm,Storstockholm,Sverige,Scandinavian Restaurant,39.0,132.0,9.0,2.0,Credit Cards: Yes,4686126550.0,svartengrens,140942232631796.0,http://www.svartengrens.se/wp-content/uploads/2014/03/restaurangmeny.pdf,"Tulegatan 24 (Surbrunnsgatan), 113 53 Stockholm, Sverige","Scandinavian Restaurant, Steakhouse, Bar"
149,149,149,4cacb7cc2f08236aeb568e61,Griffins’ Steakhouse,59.32995290317805,18.054711669106066,Klarabergsviadukten 67,4366,111 64,SE,Stockholm,Storstockholm,Sverige,Steakhouse,76.0,180.0,8.2,4.0,Credit Cards: Yes (incl. American Express & MasterCard),46851942270.0,,,http://griffinssteakhouse.se/menyer/,"Klarabergsviadukten 67 (Waterfront Building), 111 64 Stockholm, Sverige","Steakhouse, Seafood Restaurant, Scandinavian Restaurant"
150,150,150,4b69a5b4f964a52031ab2be3,Poli Caffè,59.333473,18.030834,Sankt Göransgatan 70,5356,112 38,SE,Stockholm,Storstockholm,Sverige,Café,24.0,48.0,8.6,1.0,Credit Cards: Yes,,,,,"Sankt Göransgatan 70, 112 38 Stockholm, Sverige",Café
151,151,151,55522a0e498e0369eb8e90ce,Minh Mat,59.34048423060327,18.041534858840645,Odengatan 94,5740,,SE,Stockholm,Storstockholm,Sverige,Vietnamese Restaurant,29.0,123.0,8.8,2.0,Credit Cards: Yes,468303232.0,,,,"Odengatan 94, Stockholm, Sverige",Vietnamese Restaurant
152,152,152,561791c5498e359b87967aa2,STHLM Brunch Club,59.339068458412626,18.048376658268605,Dalagatan 24,5442,113 24,SE,Stockholm,Storstockholm,Sverige,Breakfast Spot,52.0,172.0,8.6,1.0,Credit Cards: Yes,468305243.0,,888759154522777.0,http://www.sthlmbrunchclub.se/wp-content/uploads/2016/03/New-menu-010216.pdf,"Dalagatan 24, 113 24 Stockholm, Sverige",Breakfast Spot
153,153,153,5d3041cf8b4b41000851f946,Chelas,59.31772588737258,18.03135931491852,Verkstadsgatan 4,4003,117 36,SE,Stockholm,Storstockholm,Sverige,Mexican Restaurant,8.0,14.0,8.0,1.0,,,,,,"Verkstadsgatan 4, 117 36 Stockholm, Sverige",Mexican Restaurant
154,154,154,57e28358498e0a4692ca6b0f,Greasy Spoon,59.34420366792016,18.05286272689607,Hagagatan 4,5897,113 48,SE,Stockholm,Storstockholm,Sverige,Breakfast Spot,40.0,139.0,8.8,1.0,,,,1468053050091103.0,http://www.greasyspoon.se/menu/greasy-spoon_weekday_menu.pdf,"Hagagatan 4, 113 48 Stockholm, Sverige",Breakfast Spot
155,155,155,4b1fb64df964a5204d2824e3,Winterviken,59.31151111836839,17.992079584856953,Vinterviksvägen 60,5570,117 65,SE,Stockholm,Storstockholm,Sverige,Café,27.0,123.0,8.6,1.0,Credit Cards: Yes,46840026480.0,,,,"Vinterviksvägen 60, 117 65 Stockholm, Sverige","Café, Restaurant, Event Space"
156,156,156,58ce7cfdef46946d74cdf4cf,Kaferang,59.33403280397939,18.060148494492534,Gamla Brogatan 13a,4693,120 11,SE,Stockholm,Storstockholm,Sverige,Café,21.0,69.0,8.2,1.0,,,,,,"Gamla Brogatan 13a, 120 11 Stockholm, Sverige",Café
157,157,157,4b16f58ff964a52023c023e3,Café Saturnus,59.339522,18.068734,Eriksbergsgatan 6,5181,114 30,SE,Stockholm,Storstockholm,Sverige,Café,146.0,371.0,8.4,3.0,Credit Cards: Yes,4686117700.0,cafesaturnus,234953026863.0,,"Eriksbergsgatan 6 (Birger Jarlsgatan), 114 30 Stockholm, Sverige",Café
158,158,158,55a14c78498edb720b419915,Djurgårdsterrassen,59.3295617610186,18.10875811986297,Eriksbergsgatan 6,4250,,SE,Stockholm,Storstockholm,Sverige,Restaurant,1.0,9.0,8.1,2.0,,,,,,"Stockholm, Sverige",Restaurant
159,159,159,54f04f99498e311c661d5966,Bar Central,59.33919974560296,18.068003354732173,Birger Jarlsgatan 41,5152,111 45,SE,Stockholm,Storstockholm,Sverige,Eastern European Restaurant,17.0,70.0,8.4,2.0,Credit Cards: Yes,468201008.0,,,http://barcentral.se/birger-jarlsgatan-41/meny,"Birger Jarlsgatan 41, 111 45 Stockholm, Sverige","Eastern European Restaurant, Pub"
160,160,160,4c166c1e7f7f2d7f73f7e368,Nostrano,59.318839859056396,18.059743944016105,Timmermansgatan 13,3119,118 25,SE,Stockholm,Storstockholm,Sverige,Italian Restaurant,6.0,22.0,7.8,2.0,Credit Cards: Yes,4686441035.0,,,,"Timmermansgatan 13 (Hornsgatan), 118 25 Stockholm, Sverige",Italian Restaurant
161,161,161,4b019d48f964a520eb4322e3,Günters korvar,59.34236025592145,18.032575381825765,Karlbergsvägen 66,6153,113 35,SE,Stockholm,Storstockholm,Sverige,Hot Dog Joint,47.0,117.0,8.9,1.0,Credit Cards: Yes (incl. Visa & MasterCard),468311771.0,,,,"Karlbergsvägen 66, 113 35 Stockholm, Sverige",Hot Dog Joint
162,162,162,592d3b9382a7501caf82a868,The Good Gringo,59.33238000000001,18.04501,Scheelegatan 28,4841,112 28,SE,Stockholm,Storstockholm,Sverige,Mexican Restaurant,3.0,20.0,8.3,1.0,Credit Cards: Yes,46739650985.0,,,https://www.thegoodgringo.se/menu,"Scheelegatan 28, 112 28 Stockholm, Sverige",Mexican Restaurant
163,163,163,4f6a170fe4b029261f3f1f9a,Boqueria,59.334671197135705,18.06863697236787,Jakobsbergsgatan 17,4650,103 95,SE,Stockholm,Storstockholm,Sverige,Tapas Restaurant,76.0,330.0,8.2,3.0,Credit Cards: Yes (incl. American Express),468307400.0,,,,"Jakobsbergsgatan 17 (inside Mood Stockholm), 103 95 Stockholm, Sverige","Tapas Restaurant, Cocktail Bar"
164,164,164,53f8a991498e573ad1674bdb,Urban Deli,59.336859964819666,18.06255594912473,Sveavägen 44,4961,111 34,SE,Stockholm,Storstockholm,Sverige,Deli / Bodega,64.0,409.0,8.3,1.0,Credit Cards: Yes,46739425990.0,,,,"Sveavägen 44, 111 34 Stockholm, Sverige","Deli / Bodega, Restaurant, Café"
165,165,165,4d2497a4c5f2a1cd80b254cf,Borgs Bageri & Systrarna Andersson Kafé,59.34245454567404,18.0363752383698,Karlbergsvägen 45,6064,113 37,SE,Stockholm,Storstockholm,Sverige,Café,18.0,68.0,8.9,1.0,Credit Cards: Yes,46868439608.0,,,,"Karlbergsvägen 45, 113 37 Stockholm, Sverige","Café, Bakery"
166,166,166,5692aa32498ed48bea0d032a,Agnes,59.332491354553966,18.043032162118553,Norra Agnegatan 43,4904,112 29,SE,Stockholm,Storstockholm,Sverige,Modern European Restaurant,12.0,37.0,8.3,,Credit Cards: Yes,46841047019.0,,542614589226355.0,http://media.restaurangagnes.com/2014/10/agnes_meny_kv%C3%A4ll_20161106.pdf,"Norra Agnegatan 43, 112 29 Stockholm, Sverige",Modern European Restaurant
167,167,167,520369c3498ef46a882c72f7,Broms,59.33793000000001,18.087844,Karlavägen 76,4940,114 59,SE,Stockholm,Storstockholm,Sverige,French Restaurant,54.0,176.0,8.3,3.0,Credit Cards: Yes,468263710.0,,336280819839011.0,,"Karlavägen 76 (Grevgatan), 114 59 Stockholm, Sverige","French Restaurant, Bakery, Breakfast Spot"
168,168,168,4b7ae714f964a520f7442fe3,Svenska Sushiköket,59.300375,18.004062,Tellusborgsvägen 76,4583,126 37,SE,Stockholm,Storstockholm,Sverige,Sushi Restaurant,41.0,109.0,8.1,2.0,Credit Cards: Yes (incl. American Express & MasterCard),4687268405.0,,,,"Tellusborgsvägen 76, 126 37 Hägersten, Sverige","Sushi Restaurant, Asian Restaurant"
169,169,169,52ab5049498ed1d48f269bf7,Tehran Grill,59.340079,18.032815,Rörstrandsgatan 15,5923,113 40,SE,Stockholm,Storstockholm,Sverige,Middle Eastern Restaurant,17.0,77.0,8.7,2.0,Credit Cards: Yes,468333334.0,,218009971737062.0,http://tehrangrill.se/wp-content/uploads/2014/10/Tehran_middag_2014-10-01-rorstrands.pdf,"Rörstrandsgatan 15, 113 40 Stockholm, Sverige",Middle Eastern Restaurant
170,170,170,51766491e4b088d750614995,Strandvägen 1,59.33270813240126,18.076974797661613,Strandvägen 1,4369,114 51,SE,Stockholm,Storstockholm,Sverige,Restaurant,51.0,210.0,8.1,3.0,Credit Cards: Yes (incl. American Express),4686638000.0,,,http://www.strandvagen1.se/menu/,"Strandvägen 1, 114 51 Stockholm, Sverige","Restaurant, Cocktail Bar, Lounge"
171,171,171,5309e231498e821885505726,Itamae Izakaya,59.340115,18.0392,Odengatan 106,5759,,SE,Stockholm,Storstockholm,Sverige,Sushi Restaurant,22.0,66.0,8.6,2.0,Credit Cards: Yes,468302510.0,,,,"Odengatan 106, Stockholm, Sverige",Sushi Restaurant
172,172,172,5a54e085b8fd9d1e32dd7148,L’Avventura,59.344327,18.05464,Sveavägen 77,5881,113 50,SE,Stockholm,Storstockholm,Sverige,Italian Restaurant,9.0,25.0,8.6,2.0,Credit Cards: Yes,46851942274.0,,125387384800730.0,http://lavventura.se/wp-content/uploads/2019/01/laventurameny_eng_9jan.pdf,"Sveavägen 77, 113 50 Stockholm, Sverige",Italian Restaurant
173,173,173,4b07befbf964a520c0ff22e3,Fabrique stenugnsbageri,59.34454401968284,18.057584220356397,Odengatan 42,5860,113 51,SE,Stockholm,Storstockholm,Sverige,Bakery,14.0,35.0,8.6,1.0,Credit Cards: Yes,4686120445.0,stenugnsbageri,,,"Odengatan 42 (at Döbelnsgatan), 113 51 Stockholm, Sverige",Bakery
174,174,174,56367ed2498ea3a0bcd88429,Agrikultur,59.3493723,18.056871399999977,Roslagsgatan 43,6391,113 54,SE,Stockholm,Storstockholm,Sverige,Scandinavian Restaurant,7.0,37.0,9.0,4.0,Credit Cards: Yes,468150202.0,,,,"Roslagsgatan 43 (Ingemarsgatan), 113 54 Stockholm, Sverige",Scandinavian Restaurant
175,175,175,4adcdaf0f964a520675b21e3,Ho’s,59.31515994312845,18.03274704849579,Hornsgatan 151,3756,117 34,SE,Stockholm,Storstockholm,Sverige,Chinese Restaurant,43.0,113.0,7.9,1.0,Credit Cards: Yes,468844420.0,,146294418758376.0,http://hoskina.se/meny/,"Hornsgatan 151, 117 34 Stockholm, Sverige","Chinese Restaurant, Asian Restaurant"
176,176,176,5ab89de73fcee8480d4b9f49,Mahalo,59.34548480191614,18.060988640825645,Odengatan 26,5916,113 51,SE,Stockholm,Storstockholm,Sverige,Vegetarian / Vegan Restaurant,4.0,24.0,8.6,2.0,,,,,,"Odengatan 26, 113 51 Stockholm, Sverige",Vegetarian / Vegan Restaurant
177,177,177,57c46497498e1492a76160f3,Meno Male,59.34655069878065,18.059688806533813,Roslagsgatan 15,6048,113 55,SE,Stockholm,Storstockholm,Sverige,Pizza Place,27.0,94.0,8.7,1.0,Credit Cards: Yes,468141410.0,,265367120494659.0,,"Roslagsgatan 15, 113 55 Stockholm, Sverige",Pizza Place
178,178,178,5187f19a498e6595276d33f3,un Poco,59.34207318682891,18.069742008363608,Karlavägen 28,5453,,SE,Stockholm,Storstockholm,Sverige,Italian Restaurant,13.0,48.0,8.4,2.0,Credit Cards: Yes,4686110269.0,,,,"Karlavägen 28, Stockholm, Sverige",Italian Restaurant
179,179,179,56169d93498e359b8567d77d,Fat Frank's Pizza & Wine,59.338909,18.083055,Karlavägen 60,5043,,SE,Stockholm,Storstockholm,Sverige,Pizza Place,17.0,55.0,8.2,2.0,,46729959500.0,,257492062557.0,,"Karlavägen 60, Stockholm, Sverige","Pizza Place, Wine Bar"
180,180,180,4b4478f1f964a52055f525e3,Långbro Värdshus,59.2828084,17.970997600000004,Stora mans väg 4,6513,125 59,SE,Stockholm,Storstockholm,Sverige,Scandinavian Restaurant,19.0,67.0,9.0,2.0,Credit Cards: Yes,4686460050.0,,,,"Stora mans väg 4, 125 59 Älvsjö, Sverige",Scandinavian Restaurant
181,181,181,4b4da09df964a520f2d426e3,Campoloro,59.344045290710866,18.058415207360014,Döbelnsgatan 71,5794,113 52,SE,Stockholm,Storstockholm,Sverige,Mediterranean Restaurant,6.0,16.0,8.5,2.0,,4686128109.0,,,,"Döbelnsgatan 71 (Odengatan), 113 52 Stockholm, Sverige","Mediterranean Restaurant, French Restaurant"
182,182,182,4bf3c4d7706e20a1fa83a898,Boteco da Silvania,59.338357,18.024089,Kungsholm strand 173,6020,112 48,SE,Stockholm,Storstockholm,Sverige,Brazilian Restaurant,9.0,30.0,8.6,2.0,Credit Cards: Yes,4686508128.0,,138534959538612.0,http://botecodasilvania.se/meny.html,"Kungsholm strand 173, 112 48 Stockholm, Sverige",Brazilian Restaurant
183,183,183,50be39d0e4b027c60c11c205,Taverna Brillo,59.336786610251465,18.073434441938183,Sturegatan 6,4842,114 46,SE,Stockholm,Storstockholm,Sverige,Italian Restaurant,78.0,374.0,8.1,3.0,Credit Cards: Yes,46851977800.0,tavernabrillo,,,"Sturegatan 6 (Humlegårdsgatan 19), 114 46 Stockholm, Sverige","Italian Restaurant, Scandinavian Restaurant"
184,184,184,5062a019e4b08ae75abee78b,Bröd & Salt,59.340621712673816,18.059439767672906,Rådmansgatan 43,5411,,SE,Stockholm,Storstockholm,Sverige,Bakery,15.0,42.0,8.3,1.0,Credit Cards: Yes,,,,,"Rådmansgatan 43, Stockholm, Sverige",Bakery
185,185,185,570cc8ed498eb2095ed67dfa,Indian Street Food &Co,59.34593639999999,18.040330400000016,Sankt Eriksgatan 116,6323,113 31,SE,Stockholm,Storstockholm,Sverige,Indian Restaurant,16.0,52.0,8.7,2.0,Credit Cards: Yes,,indiansfsweden,653615644680036.0,,"Sankt Eriksgatan 116, 113 31 Stockholm, Sverige",Indian Restaurant
186,186,186,5a216a3635d3fc0e2393856f,Bastard Burgers,59.342553,18.058413,Rehnsgatan 22,5634,113 57,SE,Stockholm,Storstockholm,Sverige,Burger Joint,15.0,39.0,8.4,1.0,Credit Cards: Yes,468207810.0,burgersbastard,992800880797476.0,,"Rehnsgatan 22, 113 57 Stockholm, Sverige","Burger Joint, Bar"
187,187,187,57321634498ed9f9bc7b1007,Shanti Gossip Vasastan,59.34244303120892,18.031093383494827,Karlbergsvägen 70A,6201,113 35,SE,Stockholm,Storstockholm,Sverige,Indian Restaurant,9.0,30.0,8.6,2.0,Credit Cards: Yes,468322737.0,,,,"Karlbergsvägen 70A (Norrbackagatan), 113 35 Stockholm, Sverige",Indian Restaurant
188,188,188,54102c01498eb9a90fa82c2f,Nha Trang Restaurang,59.33488705029441,18.02951010978764,Fleminggatan 60,5528,112 45,SE,Stockholm,Storstockholm,Sverige,Vietnamese Restaurant,15.0,46.0,8.3,2.0,Credit Cards: Yes,46812057120.0,,,http://nhatrangrestaurant.se/Meny.html,"Fleminggatan 60, 112 45 Stockholm, Sverige",Vietnamese Restaurant
189,189,189,5125e04b19a996cfa7019ddf,K25,59.33596677468262,18.067528731034827,Kungsgatan 25,4803,111 56,SE,Stockholm,Storstockholm,Sverige,Food Court,125.0,571.0,8.1,,Credit Cards: Yes (incl. American Express),,,,,"Kungsgatan 25, 111 56 Stockholm, Sverige","Food Court, Restaurant"
190,190,190,5b3411d4037be1002c9dcf8d,Kale & Crave,59.344602,18.061908,Roslagsgatan 2,5809,113 55,SE,Stockholm,Storstockholm,Sverige,Salad Place,4.0,12.0,8.4,1.0,Credit Cards: Yes,46709786598.0,,,,"Roslagsgatan 2, 113 55 Stockholm, Sverige",Salad Place
191,191,191,576eb8b7498e1e52d5a980a1,Nomad Swedish Food & Bar,59.33608060092183,18.055065532961727,Upplandsgatan 2,4999,111 23,SE,Stockholm,Storstockholm,Sverige,Scandinavian Restaurant,30.0,68.0,8.1,2.0,,468202042.0,,616284725189830.0,,"Upplandsgatan 2 (Barnhusgatan), 111 23 Stockholm, Sverige",Scandinavian Restaurant
192,192,192,5368b07f498ed7b918846c74,Funky Chicken Food Truck,59.316393158376684,18.16110295403174,Upplandsgatan 2,5082,,SE,Stockholm,Storstockholm,Sverige,Food Truck,3.0,10.0,8.1,1.0,Credit Cards: Yes,46722703064.0,,1433802543508442.0,,Sverige,"Food Truck, Burger Joint, Fried Chicken Joint"
193,193,193,4b5841b5f964a520d94f28e3,ESA Sushi,59.34137,18.037458,Torsgatan 45,5928,113 37,SE,Stockholm,Storstockholm,Sverige,Sushi Restaurant,33.0,89.0,8.4,2.0,Credit Cards: Yes,468332906.0,,367280156635722.0,,"Torsgatan 45, 113 37 Stockholm, Sverige","Sushi Restaurant, Asian Restaurant"
194,194,194,4dfb61de8130db594dfe71b8,Villa Godthem,59.328561,18.100394,Rosendalsvägen 9,4007,115 21,SE,Stockholm,Storstockholm,Sverige,Restaurant,11.0,62.0,7.8,2.0,Credit Cards: Yes,46868423840.0,nsvanstrom,,,"Rosendalsvägen 9 (at Djurgårdsvägen), 115 21 Stockholm, Sverige","Restaurant, Scandinavian Restaurant"
195,195,195,4adcdaf0f964a520575b21e3,Tabbouli,59.33199817251956,18.042850760463207,Norra Agnegatan 39,4861,112 29,SE,Stockholm,Storstockholm,Sverige,Middle Eastern Restaurant,5.0,16.0,8.0,2.0,,,,,,"Norra Agnegatan 39, 112 29 Stockholm, Sverige",Middle Eastern Restaurant
196,196,196,5c7ec762cb3fd2002c9e9000,Mowglis kök,59.34217099999999,18.050246,Vegagatan 15,5729,113 29,SE,Stockholm,Storstockholm,Sverige,Indian Restaurant,4.0,10.0,8.3,2.0,,46709554228.0,,1974580949511596.0,https://www.facebook.com/pg/Mowgliskok/menu/?p_ref=pa,"Vegagatan 15, 113 29 Stockholm, Sverige",Indian Restaurant
197,197,197,4e0c4d3d18a89ad0106865e1,Mooncake,59.33027772179461,18.03999999252308,Bergsgatan 33,4775,112 28,SE,Stockholm,Storstockholm,Sverige,Asian Restaurant,8.0,21.0,8.0,2.0,Credit Cards: Yes,468169928.0,,,,"Bergsgatan 33 (Pilgatan), 112 28 Stockholm, Sverige",Asian Restaurant
198,198,198,542e74a3498e7df38d5ecaf8,Phil's Burger,59.3476711891506,18.103113338238774,Sandhamnsgatan 1,6120,115 40,SE,Stockholm,Storstockholm,Sverige,Burger Joint,20.0,96.0,8.4,1.0,Credit Cards: Yes,46840884070.0,philsburger,,,"Sandhamnsgatan 1, 115 40 Stockholm, Sverige",Burger Joint
199,199,199,5581a3c8498e6205a2b79adb,450 Gradi,59.34293180478113,18.156527280807488,Periskopvägen 19,6878,181 55,SE,Lidingö,Storstockholm,Sverige,Pizza Place,17.0,40.0,8.8,1.0,Credit Cards: Yes (incl. American Express & MasterCard),4687665005.0,,564661940341585.0,http://www.450gradi.se/menu-with-tabs/,"Periskopvägen 19, 181 55 Lidingö, Sverige",Pizza Place
200,200,200,4be55a802457a5935a5aab15,Erssons,59.28588392926963,17.964259344357917,Fruängstorget 6,6838,129 52,SE,Stockholm,Storstockholm,Sverige,Scandinavian Restaurant,6.0,13.0,8.8,2.0,Credit Cards: Yes,4686465575.0,,165284184933.0,,"Fruängstorget 6, 129 52 Hägersten, Sverige","Scandinavian Restaurant, Deli / Bodega"
201,201,201,55031308498eed0748c04f27,Prime Burger,59.33636375026801,18.061095405558426,Holländargatan 8A,4929,111 36,SE,Stockholm,Storstockholm,Sverige,Burger Joint,49.0,202.0,8.0,2.0,Credit Cards: Yes,468230080.0,,,,"Holländargatan 8A, 111 36 Stockholm, Sverige",Burger Joint
202,202,202,52625821498ec46f87f4b84a,Bullar & Bröd,59.339164811610644,18.004958069875634,Lindhagensgstan 147,6759,112 15,SE,Stockholm,Storstockholm,Sverige,Bakery,4.0,16.0,8.6,1.0,,46841041555.0,,667418383276521.0,,"Lindhagensgstan 147 (Hornsbergsstrand Parterren), 112 15 Stockholm, Sverige",Bakery
203,203,203,54b69447498ef1a5021d963d,Cafe Colette,59.34167890533194,18.03779732379571,Sankt Eriksgatan 90,5950,,SE,Stockholm,Storstockholm,Sverige,French Restaurant,4.0,21.0,8.3,3.0,,,,,,"Sankt Eriksgatan 90, Stockholm, Sverige",French Restaurant
204,204,204,51e0466d498eb8bfc1372104,Shanti Touch of Bengal,59.340437,18.030984,Rörstrandsgatan 23,6009,113 40,SE,Stockholm,Storstockholm,Sverige,Indian Restaurant,22.0,91.0,8.3,2.0,Credit Cards: Yes,468333100.0,shantiindisk,,,"Rörstrandsgatan 23, 113 40 Stockholm, Sverige",Indian Restaurant
205,205,205,5467979d498ebbcba386dd12,Chicha 08,59.30653,18.025688,Ingenjörsvägen 8,3592,117 59,SE,Stockholm,Storstockholm,Sverige,Peruvian Restaurant,6.0,18.0,7.7,2.0,,4687567111.0,,,http://www.chicha08.se/meny-23340125,"Ingenjörsvägen 8, 117 59 Stockholm, Sverige",Peruvian Restaurant
206,206,206,5cbecf8061e53b002cbdb0df,Sandhäxan,59.341557,18.039371,Gästrikegatan 13,5900,113 62,SE,Stockholm,Storstockholm,Sverige,Sandwich Place,5.0,10.0,8.2,1.0,Credit Cards: Yes,,,,,"Gästrikegatan 13, 113 62 Stockholm, Sverige","Sandwich Place, Deli / Bodega"
207,207,207,4b7d9501f964a52014c82fe3,Bakfickan Djuret,59.32443255511542,18.067824306280407,Lilla Nygatan 5,3547,111 28,SE,Stockholm,Storstockholm,Sverige,Scandinavian Restaurant,28.0,72.0,7.6,2.0,Credit Cards: Yes,46850640084.0,,,,"Lilla Nygatan 5 (Victory Hotel), 111 28 Stockholm, Sverige",Scandinavian Restaurant
208,208,208,52aab27311d28ddbf8ea71af,Bun Meat Bun,59.23726621336562,18.101204721352733,Brattforsgatan 19,6350,123 50,SE,Farsta,Storstockholm,Sverige,Burger Joint,35.0,106.0,8.4,2.0,Credit Cards: Yes,46812059165.0,bunmeatbun,,,"Brattforsgatan 19, 123 50 Farsta, Sverige",Burger Joint
209,209,209,5c012b6f3731ee003999057c,NK Art Bakery,59.333043,18.067981,Regeringsgatan 47,4479,111 56,SE,Stockholm,Storstockholm,Sverige,Bakery,7.0,16.0,7.8,1.0,,,,,,"Regeringsgatan 47, 111 56 Stockholm, Sverige","Bakery, Restaurant"
210,210,210,4b5eca8ef964a520d69829e3,Carotte Catering,59.34097717360404,18.113916121742747,Tegeluddsvägen 92,5548,115 28,SE,Stockholm,Storstockholm,Sverige,Deli / Bodega,4.0,19.0,8.1,1.0,Credit Cards: Yes,4686551122.0,,,,"Tegeluddsvägen 92, 115 28 Stockholm, Sverige","Deli / Bodega, Café"
211,211,211,4adcdaf0f964a5203c5b21e3,Restaurang Tranan,59.34302325667842,18.049124018267502,Karlbergsvägen 14,5839,113 27,SE,Stockholm,Storstockholm,Sverige,Scandinavian Restaurant,82.0,251.0,8.2,2.0,Credit Cards: Yes (incl. American Express),46852728100.0,resttranan,157252787625719.0,,"Karlbergsvägen 14, 113 27 Stockholm, Sverige","Scandinavian Restaurant, Bar, Cocktail Bar"
212,212,212,50b749d8e4b07a75db7603d0,GoChoo,59.345723408441216,18.0455706444156,Upplandsgatan 78,6191,111 23,SE,Stockholm,Storstockholm,Sverige,Korean Restaurant,12.0,38.0,8.3,2.0,Credit Cards: Yes,468330986.0,,312107772225961.0,,"Upplandsgatan 78, 111 23 Stockholm, Sverige","Korean Restaurant, Sushi Restaurant"
213,213,213,56fb9c2b498ef29b95f95f14,Totemo Ramen,59.33846010136402,18.036039769649502,Sankt Eriksgatan 70,5677,113 20,SE,Stockholm,Storstockholm,Sverige,Ramen Restaurant,25.0,71.0,8.1,,Credit Cards: Yes (incl. American Express & MasterCard),,,1685548805047786.0,,"Sankt Eriksgatan 70, 113 20 Stockholm, Sverige","Ramen Restaurant, Noodle House"
214,214,214,4bbb5fb498c7ef3b4f0d3402,Restaurang Artilleriet,59.334541225132256,18.08098015982675,Artillerigatan 13,4559,114 51,SE,Stockholm,Storstockholm,Sverige,Scandinavian Restaurant,8.0,27.0,7.8,2.0,Credit Cards: No,4686643430.0,,215461278478122.0,http://www.restaurangartilleriet.se/vara-menyer/,"Artillerigatan 13, 114 51 Stockholm, Sverige",Scandinavian Restaurant
215,215,215,5167f9bee4b09d5ff98a7601,Gateau,59.316389477223254,18.03347814268424,Hornstull,3814,,SE,Stockholm,Storstockholm,Sverige,Bakery,3.0,10.0,7.6,1.0,Credit Cards: Yes,46851979119.0,,,,"Hornstull, Stockholm, Sverige",Bakery
216,216,216,55605732498e4bdbb46c95d7,Pizzeria Giro,59.337414,18.062113,Sveavägen 46,5027,111 34,SE,Stockholm,Storstockholm,Sverige,Pizza Place,44.0,143.0,7.9,1.0,Credit Cards: Yes,4684406767.0,,1586861244903963.0,http://www.giropizzeria.com/meny,"Sveavägen 46 (Adolf Fredriks Kyrkogata), 111 34 Stockholm, Sverige",Pizza Place
217,217,217,4c828e5e6bd49521d3e3c5d2,Bakstugan,59.294523,17.966765,Vasaloppsvägen 64,6642,129 45,SE,Stockholm,Storstockholm,Sverige,Bakery,3.0,12.0,8.3,1.0,Credit Cards: Yes,,,,,"Vasaloppsvägen 64, 129 45 Hägersten, Sverige","Bakery, Café"
218,218,218,5888a6524f106941b8793ec7,Paraden Kvarterskrog,59.34105267076135,18.090263624593863,Valhallavägen 147,5295,115 31,SE,Stockholm,Storstockholm,Sverige,Modern European Restaurant,4.0,29.0,7.9,,Credit Cards: Yes,4686603355.0,bockholmengrupp,246078202488848.0,http://paradenkvarterskrog.com/wp-content/uploads/2017/01/Paraden_Kva%CC%88llsmeny_v22._eng-Latest.pdf,"Valhallavägen 147 (Erik Dahlbergsgatan), 115 31 Stockholm, Sverige","Modern European Restaurant, Wine Bar"
219,219,219,4b0996c1f964a520f21923e3,Restaurang Cypern,59.34742168292322,18.06557750978701,Valhallavägen 50,6078,,SE,Stockholm,Storstockholm,Sverige,Greek Restaurant,12.0,28.0,8.1,2.0,Credit Cards: Yes,,,,,"Valhallavägen 50, Stockholm, Sverige",Greek Restaurant
220,220,220,4af40479f964a520d2ef21e3,Albert & Jack’s,59.33800458870232,18.06988765523194,Engelbrektsgatan 3,5004,114 32,SE,Stockholm,Storstockholm,Sverige,Deli / Bodega,16.0,48.0,7.8,1.0,Credit Cards: Yes,4686115001.0,,169600779730907.0,http://www.albertjacks.se/index.php/sortiment,"Engelbrektsgatan 3 (Birger Jarlsgatan), 114 32 Stockholm, Sverige","Deli / Bodega, Café"
221,221,221,4adcdaf0f964a5203b5b21e3,Tennstopet,59.34178766098812,18.04560045553257,Dalagatan 50,5782,113 24,SE,Stockholm,Storstockholm,Sverige,Scandinavian Restaurant,45.0,169.0,7.9,2.0,Credit Cards: Yes,468322518.0,,,http://www.tennstopet.se/en/index.php/meny,"Dalagatan 50, 113 24 Stockholm, Sverige",Scandinavian Restaurant
222,222,222,4c08c26b6071a59317bfdc32,Park konditori,59.3290175992296,17.97357577374585,Dalagatan 50,7390,167 51,SE,Stockholm,Storstockholm,Sverige,Bakery,5.0,23.0,8.4,1.0,Credit Cards: Yes,,,,,"167 51 Bromma, Sverige",Bakery
223,223,223,4b292288f964a5206d9924e3,Ramen Ki-Mama,59.34706241833389,18.06121195625613,Birger Jarlsgatan 93,6085,113 56,SE,Stockholm,Storstockholm,Sverige,Japanese Restaurant,66.0,214.0,8.0,2.0,Credit Cards: Yes (incl. American Express & MasterCard),468155539.0,,,,"Birger Jarlsgatan 93, 113 56 Stockholm, Sverige",Japanese Restaurant
224,224,224,4bb7624cf562ef3bc8503197,Konditori Lyran,59.301266390387056,17.936166161159857,Ålgrytevägen 90,8423,127 32,SE,Skärholmen,Storstockholm,Sverige,Café,25.0,66.0,9.1,1.0,Credit Cards: Yes,4686463505.0,,,,"Ålgrytevägen 90 (Bredäng), 127 32 Skärholmen, Sverige","Café, Bakery, Scenic Lookout"
225,225,225,4bcb74660687ef3bbac9ddcc,Sjöpaviljongen,59.33162910768882,17.986228893312358,Tranebergs strand 4,6965,167 40,SE,Stockholm,Storstockholm,Sverige,Scandinavian Restaurant,9.0,51.0,8.2,2.0,Credit Cards: Yes,4687040424.0,,,,"Tranebergs strand 4, 167 40 Bromma, Sverige",Scandinavian Restaurant
226,226,226,4bcaf2aecc8cd13a077abecf,Gamla Orangeriet,59.369838123390856,18.04609879308665,Veit Wittrocks väg 7,8749,114 18,SE,Stockholm,Storstockholm,Sverige,Café,18.0,106.0,9.3,2.0,Credit Cards: Yes (incl. Visa),4686120959.0,,487013744690086.0,,"Veit Wittrocks väg 7, 114 18 Stockholm, Sverige","Café, Scandinavian Restaurant"
227,227,227,4b5896fdf964a520f35f28e3,Fondueboden,59.345250748037174,18.040770725717984,Vanadisvägen 42,6243,113 31,SE,Stockholm,Storstockholm,Sverige,French Restaurant,5.0,20.0,8.0,3.0,Credit Cards: Yes,468339900.0,,,,"Vanadisvägen 42, 113 31 Stockholm, Sverige",French Restaurant
228,228,228,5456190d498e550f5b0ef742,Lö Bröd & Patisserie,59.36490275861082,18.12965257090697,Stockholmsvägen 40,8357,,SE,Lidingö,Storstockholm,Sverige,Bakery,8.0,28.0,8.7,1.0,,,,,,"Stockholmsvägen 40, Lidingö, Sverige",Bakery
229,229,229,5523a6fe498eef39439db8ec,Austin Food Works,59.34792009425021,18.046229481697086,Norrtullsgatan 24,6408,113 45,SE,Stockholm,Storstockholm,Sverige,Southern / Soul Food Restaurant,32.0,103.0,8.0,1.0,Credit Cards: Yes,468320704.0,austinfoodworks,892693420770412.0,https://instagram.com/p/6a25flw5jB/,"Norrtullsgatan 24, 113 45 Stockholm, Sverige","Southern / Soul Food Restaurant, BBQ Joint, Bar"
230,230,230,5b97880504d1ae002c4b757f,Las Brasas,59.34474253065604,18.061705827713013,Roslagsgatan 6,5827,113 55,SE,Stockholm,Storstockholm,Sverige,Modern European Restaurant,3.0,8.0,7.8,,,,,,,"Roslagsgatan 6, 113 55 Stockholm, Sverige",Modern European Restaurant
231,231,231,58b55067d772f9552f66142e,Eatnam,59.341905,18.047336,Odengatan 85,5758,113 22,SE,Stockholm,Storstockholm,Sverige,Vietnamese Restaurant,9.0,59.0,7.8,2.0,Credit Cards: Yes (incl. Visa & MasterCard),468305130.0,,,https://eatnam.se/meny/,"Odengatan 85, 113 22 Stockholm, Sverige",Vietnamese Restaurant
232,232,232,4f67677de4b062549dcab7b4,Vigårda,59.33424331354914,18.07113045599206,Norrlandsgatan 13,4579,111 43,SE,Stockholm,Storstockholm,Sverige,Burger Joint,234.0,723.0,7.6,1.0,Credit Cards: Yes,46850524465.0,,,,"Norrlandsgatan 13 (at Mäster Samuelsgatan), 111 43 Stockholm, Sverige",Burger Joint
233,233,233,5c1f9a33f2554e002ba1c6c0,Saravanaa Bhavan,59.338251,18.03582,Sankt Eriksgatan 66,5663,113 20,SE,Stockholm,Storstockholm,Sverige,South Indian Restaurant,4.0,5.0,7.8,,,4687939333.0,,,,"Sankt Eriksgatan 66, 113 20 Stockholm, Sverige","South Indian Restaurant, Vegetarian / Vegan Restaurant"
234,234,234,54ffeb49498ea3fcf0e75688,Kafé Orion,59.34328926168826,18.05062119453516,Norrtullsgatan 10,5839,,SE,Stockholm,Storstockholm,Sverige,Café,15.0,38.0,7.8,1.0,Credit Cards: Yes (incl. American Express & MasterCard),46842866361.0,,,,"Norrtullsgatan 10, Stockholm, Sverige","Café, Coffee Shop"
235,235,235,4cdf04bdaba88cfa851e46d7,Piren Restaurang och Bar,59.33836035264085,18.001305577856254,Kristinebergs Strand 2,6832,112 52,SE,Stockholm,Storstockholm,Sverige,Scandinavian Restaurant,25.0,95.0,8.0,2.0,Credit Cards: Yes,4686183030.0,,,,"Kristinebergs Strand 2 (Elersvägen), 112 52 Stockholm, Sverige","Scandinavian Restaurant, French Restaurant"
236,236,236,5293b01111d267e39c4227ed,Selma Deli,59.35586407410449,18.087365664318266,Jaktgatan 4,6934,115 45,SE,Stockholm,Storstockholm,Sverige,Deli / Bodega,4.0,27.0,8.1,1.0,Credit Cards: Yes,46854614454.0,,,,"Jaktgatan 4 (at Brobergsgatan), 115 45 Stockholm, Sverige",Deli / Bodega
237,237,237,4be2a02dd27a20a1d4eb8f5b,Stora Skuggans Värdshus,59.36376007801378,18.074452684921386,Stora Skuggans Väg 12,7827,115 42,SE,Stockholm,Storstockholm,Sverige,Restaurant,3.0,19.0,8.3,1.0,,468155070.0,,1390745641230247.0,,"Stora Skuggans Väg 12, 115 42 Stockholm, Sverige","Restaurant, Café"
238,238,238,4e3a9e67fa766e76ed442f76,Nybroe Smørrebrød,59.335886,18.077792,Nybrogatan 31,4718,,SE,Stockholm,Storstockholm,Sverige,Scandinavian Restaurant,5.0,11.0,7.5,2.0,Credit Cards: Yes,4686622320.0,,,,"Nybrogatan 31, Stockholm, Sverige",Scandinavian Restaurant
239,239,239,57c309a9498e1792aabe109c,Esuki Sushi,59.36518419332233,17.993849878480226,Råsundavägen 117A,9458,169 50,SE,Solna,Storstockholm,Sverige,Sushi Restaurant,11.0,37.0,9.3,2.0,Credit Cards: Yes,468276767.0,,,,"Råsundavägen 117A, 169 50 Solna, Sverige",Sushi Restaurant
240,240,240,52fbfd49498ebf539af925e6,Chili Masala,59.362444056182305,18.010868179651165,Hagalundsgatan 19,8705,169 66,SE,Solna Kommun,Storstockholm,Sverige,Indian Restaurant,13.0,50.0,8.6,2.0,Credit Cards: Yes,468277000.0,,,,"Hagalundsgatan 19, 169 66 Stockholm, Sverige","Indian Restaurant, Pakistani Restaurant, Halal Restaurant"
241,241,241,4b0d7fa9f964a520a64923e3,La Tentazione,59.33731925494636,18.06478099528949,Malmskillnadsgatan 60,4982,,SE,Stockholm,Storstockholm,Sverige,Italian Restaurant,6.0,12.0,7.5,2.0,,,,,,"Malmskillnadsgatan 60, Stockholm, Sverige",Italian Restaurant
242,242,242,4bd6b550cfa7b7134bed27da,Restaurang S,59.35651487876122,17.97682027474168,Röntgenvägen 2,9264,171 54,SE,Solna,Storstockholm,Sverige,Scandinavian Restaurant,13.0,40.0,8.7,2.0,,46852506980.0,,,,"Röntgenvägen 2, 171 54 Solna, Sverige",Scandinavian Restaurant
243,243,243,4be5bd6fcf200f474ca6133c,Bockholmen Hav & Restaurang,59.37749178986118,18.05437803268433,Bockholmenvägen 1,9484,170 78,SE,Stockholm,Storstockholm,Sverige,Scandinavian Restaurant,14.0,76.0,8.5,2.0,Credit Cards: Yes,4686242200.0,bockholmengrupp,451863814857586.0,,"Bockholmenvägen 1, 170 78 Stockholm, Sverige",Scandinavian Restaurant
244,244,244,4c0a3ceb009a0f478904e9bf,Långängens Gård,59.357148973717315,18.19364956236989,LÅNGÄNGENS GÅRD 181 41,9439,,SE,Lidingö,Storstockholm,Sverige,Café,6.0,29.0,8.5,1.0,Credit Cards: Yes,4687663460.0,,,,"LÅNGÄNGENS GÅRD 181 41, Lidingö, Sverige",Café
245,245,245,51667c81e4b0aa0480fc1564,Lily’s Burger,59.34048628190813,18.008058081472136,Hornsbergs Strand 47,6756,112 16,SE,Stockholm,Storstockholm,Sverige,Burger Joint,55.0,167.0,7.6,1.0,Credit Cards: Yes (incl. American Express),4686569006.0,,,,"Hornsbergs Strand 47, 112 16 Stockholm, Sverige",Burger Joint
246,246,246,4be69a77910020a1d075d414,Daisy's,59.340587099504525,17.96113959880651,Ulvsundavägen 71,8703,167 32,SE,Stockholm,Storstockholm,Sverige,Fast Food Restaurant,3.0,15.0,7.9,1.0,Credit Cards: Yes,468267019.0,,,,"Ulvsundavägen 71, 167 32 Bromma, Sverige",Fast Food Restaurant
247,247,247,5545f405498e4eaf94be858a,Supreme Burger,59.36423900000001,17.995323000000006,Solnavägen 55,9325,169 51,SE,Solna,Storstockholm,Sverige,Burger Joint,8.0,32.0,7.9,2.0,,46840810559.0,,,,"Solnavägen 55, 169 51 Solna, Sverige",Burger Joint
248,248,248,4cea512df865370461fdbbc4,Klå Fann Thai,59.36136480903467,17.983088954003698,Ekensbergsvägen 97,9459,169 31,SE,Solna,Storstockholm,Sverige,Thai Restaurant,7.0,29.0,7.8,2.0,,468278440.0,,,,"Ekensbergsvägen 97, 169 31 Solna, Sverige",Thai Restaurant
